{
  "Q105102299": {
    "label": "Reise von Wien über Prag, Dresden und durch einen Theil der Lausitz nach Berlin und Potsdam",
    "locations": [
      {
        "qid": "Q1731",
        "label": "Dresden",
        "ordinal": 0,
        "latitude": 51.0493286,
        "longitude": 13.7381437
      },
      {
        "qid": "Q1731",
        "label": "Dresden",
        "ordinal": 1,
        "latitude": 51.0493286,
        "longitude": 13.7381437
      },
      {
        "qid": "Q8946",
        "label": "Pillnitz",
        "ordinal": 2,
        "latitude": 51.012777777,
        "longitude": 13.872777777
      },
      {
        "qid": "Q517828",
        "label": "Hubertusburg",
        "ordinal": 3,
        "latitude": 51.2774,
        "longitude": 12.9398
      },
      {
        "qid": "Q1549570",
        "label": "Großsedlitz",
        "ordinal": 4,
        "latitude": 50.9542,
        "longitude": 13.8903
      },
      {
        "qid": "Q1114677",
        "label": "Weesenstein",
        "ordinal": 5,
        "latitude": 50.9331,
        "longitude": 13.8614
      },
      {
        "qid": "Q6783",
        "label": "Königstein",
        "ordinal": 6,
        "latitude": 50.918888888,
        "longitude": 14.071388888
      },
      {
        "qid": "Q8714",
        "label": "Großenhain",
        "ordinal": 7,
        "latitude": 51.291944444,
        "longitude": 13.534166666
      },
      {
        "qid": "Q584473",
        "label": "Elsterwerda",
        "ordinal": 8,
        "latitude": 51.45691,
        "longitude": 13.523319
      }
    ]
  },
  "Q105102559": {
    "label": "Reisen durch einige Theile von Deutschland, Polen, der Moldau und der Türkei. Ester Theil",
    "locations": [
      {
        "qid": "Q1731",
        "label": "Dresden",
        "ordinal": 1,
        "latitude": 51.0493286,
        "longitude": 13.7381437
      },
      {
        "qid": "Q1731",
        "label": "Dresden",
        "ordinal": 2,
        "latitude": 51.0493286,
        "longitude": 13.7381437
      },
      {
        "qid": "Q6783",
        "label": "Königstein",
        "ordinal": 3,
        "latitude": 50.918888888,
        "longitude": 14.071388888
      },
      {
        "qid": "Q8738",
        "label": "Meissen",
        "ordinal": 4,
        "latitude": 51.163611111,
        "longitude": 13.4775
      }
    ]
  },
  "Q109590352": {
    "label": "Briefe an deutsche Freunde von einer Reise durch Italien über Sachsen, Böhmen, und Oestreich, 1820 und 1821 geschrieben und als Skizzen zum Gemälde unserer Zeit herausgegeben.",
    "locations": [
      {
        "qid": "Q2079",
        "label": "Leipzig",
        "ordinal": 1,
        "latitude": 51.3406321,
        "longitude": 12.3747329
      },
      {
        "qid": "Q10780",
        "label": "Grimma",
        "ordinal": 2,
        "latitude": 51.2383379,
        "longitude": 12.7287511
      },
      {
        "qid": "Q8738",
        "label": "Meissen",
        "ordinal": 3,
        "latitude": 51.163611111,
        "longitude": 13.4775
      },
      {
        "qid": "Q1731",
        "label": "Dresden",
        "ordinal": 4,
        "latitude": 51.0493286,
        "longitude": 13.7381437
      },
      {
        "qid": "Q8899",
        "label": "Cotta",
        "ordinal": 5,
        "latitude": 51.0564,
        "longitude": 13.6875
      },
      {
        "qid": "Q1252764",
        "label": "Räcknitz",
        "ordinal": 6,
        "latitude": 51.025,
        "longitude": 13.7331
      },
      {
        "qid": "Q8946",
        "label": "Pillnitz",
        "ordinal": 7,
        "latitude": 51.012777777,
        "longitude": 13.872777777
      },
      {
        "qid": "Q6406",
        "label": "Bad Schandau",
        "ordinal": 8,
        "latitude": 50.916666666,
        "longitude": 14.15
      }
    ]
  },
  "Q109728957": {
    "label": "Reise durch Deutschland und die Schweiz 1815/1816",
    "locations": [
      {
        "qid": "Q530197",
        "label": "Coswig",
        "ordinal": 1,
        "latitude": 51.883333333,
        "longitude": 12.433333333
      },
      {
        "qid": "Q487070",
        "label": "Dessau",
        "ordinal": 2,
        "latitude": 51.834166666,
        "longitude": 12.246111111
      },
      {
        "qid": "Q518275",
        "label": "Wörlitz",
        "ordinal": 3,
        "latitude": 51.841666666,
        "longitude": 12.420277777
      },
      {
        "qid": "Q687880",
        "label": "Bobbau",
        "ordinal": 5,
        "latitude": 51.69029,
        "longitude": 12.268188
      },
      {
        "qid": "Q836702",
        "label": "Holzweißig",
        "ordinal": 6,
        "latitude": 51.6,
        "longitude": 12.3
      },
      {
        "qid": "Q12052",
        "label": "Delitzsch",
        "ordinal": 7,
        "latitude": 51.526388888,
        "longitude": 12.3425
      },
      {
        "qid": "Q2079",
        "label": "Leipzig",
        "ordinal": 8,
        "latitude": 51.3406321,
        "longitude": 12.3747329
      },
      {
        "qid": "Q1534378",
        "label": "Gohlis",
        "ordinal": 9,
        "latitude": 51.3611,
        "longitude": 12.3667
      },
      {
        "qid": "Q1614215",
        "label": "Probstheida",
        "ordinal": 10,
        "latitude": 51.3064,
        "longitude": 12.4257
      },
      {
        "qid": "Q33459069",
        "label": "Lützen",
        "ordinal": 11,
        "latitude": 51.25671,
        "longitude": 12.14164
      },
      {
        "qid": "Q697275",
        "label": "Großgörschen",
        "ordinal": 12,
        "latitude": 51.216666666,
        "longitude": 12.183055555
      },
      {
        "qid": "Q1535722",
        "label": "Rippach",
        "ordinal": 13,
        "latitude": 51.2331,
        "longitude": 12.0197
      },
      {
        "qid": "Q14815",
        "label": "Weißenfels",
        "ordinal": 14,
        "latitude": 51.2,
        "longitude": 11.966666666
      },
      {
        "qid": "Q688622",
        "label": "Leißling",
        "ordinal": 15,
        "latitude": 51.183055555,
        "longitude": 11.9
      },
      {
        "qid": "Q564347",
        "label": "Schönburg",
        "ordinal": 16,
        "latitude": 51.166666666,
        "longitude": 11.866666666
      },
      {
        "qid": "Q15986",
        "label": "Naumburg",
        "ordinal": 17,
        "latitude": 51.152095,
        "longitude": 11.809819
      },
      {
        "qid": "Q31982417",
        "label": "Eckartsberga",
        "ordinal": 18,
        "latitude": 51.123888888,
        "longitude": 11.560555555
      },
      {
        "qid": "Q703680",
        "label": "Camburg",
        "ordinal": 19,
        "latitude": 51.053888888,
        "longitude": 11.7075
      },
      {
        "qid": "Q700519",
        "label": "Dorndorf-Steudnitz",
        "ordinal": 20,
        "latitude": 51.0109,
        "longitude": 11.691
      },
      {
        "qid": "Q3150",
        "label": "Jena",
        "ordinal": 21,
        "latitude": 50.927222222,
        "longitude": 11.586388888
      },
      {
        "qid": "Q1553253",
        "label": "Kunitz",
        "ordinal": 22,
        "latitude": 50.9564,
        "longitude": 11.6364
      },
      {
        "qid": "Q1867060",
        "label": "Lobeda",
        "ordinal": 23,
        "latitude": 50.893152,
        "longitude": 11.60588
      },
      {
        "qid": "Q3955",
        "label": "Weimar",
        "ordinal": 24,
        "latitude": 50.981111111,
        "longitude": 11.329444444
      },
      {
        "qid": "Q1729",
        "label": "Erfurt",
        "ordinal": 25,
        "latitude": 50.978055555,
        "longitude": 11.028888888
      },
      {
        "qid": "Q6986",
        "label": "Gotha",
        "ordinal": 26,
        "latitude": 50.948888888,
        "longitude": 10.718333333
      },
      {
        "qid": "Q7070",
        "label": "Eisenach",
        "ordinal": 27,
        "latitude": 50.974722222,
        "longitude": 10.324444444
      },
      {
        "qid": "Q1427335",
        "label": "Wilhelmsthal",
        "ordinal": 28,
        "latitude": 50.9184,
        "longitude": 10.3062
      },
      {
        "qid": "Q437628",
        "label": "Altenstein",
        "ordinal": 30,
        "latitude": 50.8353,
        "longitude": 10.3492
      },
      {
        "qid": "Q1532770",
        "label": "Glücksbrunn (Bad Liebenstein)",
        "ordinal": 31,
        "latitude": 50.8355,
        "longitude": 10.3139
      },
      {
        "qid": "Q826305",
        "label": "Schweina",
        "ordinal": 32,
        "latitude": 50.8009,
        "longitude": 10.293
      },
      {
        "qid": "Q826305",
        "label": "Schweina",
        "ordinal": 32,
        "latitude": 50.800888888,
        "longitude": 10.293027777
      },
      {
        "qid": "Q826305",
        "label": "Schweina",
        "ordinal": 32,
        "latitude": 50.875833333,
        "longitude": 10.349888888
      },
      {
        "qid": "Q14906336",
        "label": "Bad Liebenstein",
        "ordinal": 33,
        "latitude": 50.8183801,
        "longitude": 10.3491578
      },
      {
        "qid": "Q632250",
        "label": "Brotterode",
        "ordinal": 34,
        "latitude": 50.833333333,
        "longitude": 10.433333333
      },
      {
        "qid": "Q506743",
        "label": "Waltershausen",
        "ordinal": 35,
        "latitude": 50.8975,
        "longitude": 10.555833333
      },
      {
        "qid": "Q502714",
        "label": "Ohrdruf",
        "ordinal": 36,
        "latitude": 50.828055555,
        "longitude": 10.732777777
      },
      {
        "qid": "Q2063928",
        "label": "Paulinzella",
        "ordinal": 37,
        "latitude": 50.7022,
        "longitude": 11.1047
      },
      {
        "qid": "Q539200",
        "label": "Schwarzburg",
        "ordinal": 38,
        "latitude": 50.640833333,
        "longitude": 11.196944444
      },
      {
        "qid": "Q518432",
        "label": "Bad Blankenburg",
        "ordinal": 39,
        "latitude": 50.683333333,
        "longitude": 11.266666666
      },
      {
        "qid": "Q517107",
        "label": "Rudolstadt",
        "ordinal": 40,
        "latitude": 50.716944444,
        "longitude": 11.3275
      },
      {
        "qid": "Q155984",
        "label": "Saalfeld",
        "ordinal": 41,
        "latitude": 50.650555555,
        "longitude": 11.354166666
      },
      {
        "qid": "Q33441483",
        "label": "Gräfenthal",
        "ordinal": 42,
        "latitude": 50.524722222,
        "longitude": 11.306666666
      },
      {
        "qid": "Q637466",
        "label": "Judenbach",
        "ordinal": 43,
        "latitude": 50.399722222,
        "longitude": 11.216666666
      },
      {
        "qid": "Q1796580",
        "label": "Köppelsdorf",
        "ordinal": 44,
        "latitude": 50.3547,
        "longitude": 11.2061
      },
      {
        "qid": "Q3033",
        "label": "Göttingen",
        "ordinal": 45,
        "latitude": 51.533888888,
        "longitude": 9.935555555
      },
      {
        "qid": "Q564765",
        "label": "Heilbad Heiligenstadt",
        "ordinal": 46,
        "latitude": 51.3775,
        "longitude": 10.134444444
      },
      {
        "qid": "Q3150",
        "label": "Jena",
        "ordinal": 48,
        "latitude": 50.927222222,
        "longitude": 11.586388888
      },
      {
        "qid": "Q3955",
        "label": "Weimar",
        "ordinal": 49,
        "latitude": 50.981111111,
        "longitude": 11.329444444
      },
      {
        "qid": "Q3955",
        "label": "Weimar",
        "ordinal": 50,
        "latitude": 50.981111111,
        "longitude": 11.329444444
      },
      {
        "qid": "Q3150",
        "label": "Jena",
        "ordinal": 51,
        "latitude": 50.927222222,
        "longitude": 11.586388888
      },
      {
        "qid": "Q198791",
        "label": "Ziegenhain",
        "ordinal": 52,
        "latitude": 50.9197,
        "longitude": 11.625
      },
      {
        "qid": "Q565921",
        "label": "Schöngleina",
        "ordinal": 53,
        "latitude": 50.908888888,
        "longitude": 11.726388888
      },
      {
        "qid": "Q552692",
        "label": "Hermsdorf",
        "ordinal": 54,
        "latitude": 50.898055555,
        "longitude": 11.856666666
      },
      {
        "qid": "Q3750",
        "label": "Gera",
        "ordinal": 55,
        "latitude": 50.87818,
        "longitude": 12.08242
      },
      {
        "qid": "Q32263553",
        "label": "Ronneburg",
        "ordinal": 56,
        "latitude": 50.863333333,
        "longitude": 12.186666666
      },
      {
        "qid": "Q20070",
        "label": "Crimmitschau",
        "ordinal": 57,
        "latitude": 50.818055555,
        "longitude": 12.3875
      },
      {
        "qid": "Q20071",
        "label": "Glauchau",
        "ordinal": 58,
        "latitude": 50.823333333,
        "longitude": 12.544444444
      },
      {
        "qid": "Q20084",
        "label": "Oberlungwitz",
        "ordinal": 59,
        "latitude": 50.783333333,
        "longitude": 12.716666666
      },
      {
        "qid": "Q2795",
        "label": "Chemnitz",
        "ordinal": 60,
        "latitude": 50.833333333,
        "longitude": 12.916666666
      },
      {
        "qid": "Q71141",
        "label": "Oederan",
        "ordinal": 61,
        "latitude": 50.861666666,
        "longitude": 13.167222222
      },
      {
        "qid": "Q14819",
        "label": "Freiberg",
        "ordinal": 62,
        "latitude": 50.911944444,
        "longitude": 13.342777777
      },
      {
        "qid": "Q1546774",
        "label": "Grillenburg",
        "ordinal": 63,
        "latitude": 50.9528,
        "longitude": 13.5072
      },
      {
        "qid": "Q8245",
        "label": "Tharandt",
        "ordinal": 64,
        "latitude": 50.983333333,
        "longitude": 13.580833333
      },
      {
        "qid": "Q383386",
        "label": "Potschappel",
        "ordinal": 65,
        "latitude": 51.013322222,
        "longitude": 13.661747222
      },
      {
        "qid": "Q8949",
        "label": "Plauen",
        "ordinal": 66,
        "latitude": 51.0294,
        "longitude": 13.7072
      },
      {
        "qid": "Q1731",
        "label": "Dresden",
        "ordinal": 67,
        "latitude": 51.0493286,
        "longitude": 13.7381437
      },
      {
        "qid": "Q1731",
        "label": "Dresden",
        "ordinal": 68,
        "latitude": 51.0493286,
        "longitude": 13.7381437
      },
      {
        "qid": "Q8946",
        "label": "Pillnitz",
        "ordinal": 69,
        "latitude": 51.012777777,
        "longitude": 13.872777777
      },
      {
        "qid": "Q894174",
        "label": "Borsberg",
        "ordinal": 70,
        "latitude": 51.0125,
        "longitude": 13.8969
      },
      {
        "qid": "Q8738",
        "label": "Meissen",
        "ordinal": 71,
        "latitude": 51.163611111,
        "longitude": 13.4775
      },
      {
        "qid": "Q517828",
        "label": "Hubertusburg",
        "ordinal": 72,
        "latitude": 51.2774,
        "longitude": 12.9398
      },
      {
        "qid": "Q14945",
        "label": "Merseburg",
        "ordinal": 73,
        "latitude": 51.354444444,
        "longitude": 11.992777777
      },
      {
        "qid": "Q634966",
        "label": "Klostermansfeld",
        "ordinal": 74,
        "latitude": 51.583055555,
        "longitude": 11.5
      },
      {
        "qid": "Q1815156",
        "label": "Leimbach",
        "ordinal": 75,
        "latitude": 51.6031,
        "longitude": 11.4642
      },
      {
        "qid": "Q518258",
        "label": "Gernrode",
        "ordinal": 76,
        "latitude": 51.724444444,
        "longitude": 11.139166666
      },
      {
        "qid": "Q574468",
        "label": "Bad Suderode",
        "ordinal": 77,
        "latitude": 51.733055555,
        "longitude": 11.116666666
      },
      {
        "qid": "Q525960",
        "label": "Blankenburg",
        "ordinal": 78,
        "latitude": 51.795277777,
        "longitude": 10.962222222
      },
      {
        "qid": "Q818496",
        "label": "Benzingerode",
        "ordinal": 79,
        "latitude": 51.8346,
        "longitude": 10.8671
      },
      {
        "qid": "Q15982",
        "label": "Wernigerode",
        "ordinal": 80,
        "latitude": 51.835,
        "longitude": 10.785277777
      },
      {
        "qid": "Q529928",
        "label": "Ilsenburg",
        "ordinal": 81,
        "latitude": 51.866666666,
        "longitude": 10.683333333
      }
    ]
  },
  "Q109943909": {
    "label": "Reise Tagebuch von 1798",
    "locations": [
      {
        "qid": "Q487278",
        "label": "Meiningen",
        "ordinal": 1,
        "latitude": 50.55,
        "longitude": 10.416666666
      },
      {
        "qid": "Q489147",
        "label": "Schmalkalden",
        "ordinal": 2,
        "latitude": 50.716666666,
        "longitude": 10.45
      },
      {
        "qid": "Q6986",
        "label": "Gotha",
        "ordinal": 3,
        "latitude": 50.948888888,
        "longitude": 10.718333333
      },
      {
        "qid": "Q6986",
        "label": "Gotha",
        "ordinal": 4,
        "latitude": 50.948888888,
        "longitude": 10.718333333
      },
      {
        "qid": "Q6986",
        "label": "Gotha",
        "ordinal": 5,
        "latitude": 50.948888888,
        "longitude": 10.718333333
      },
      {
        "qid": "Q6986",
        "label": "Gotha",
        "ordinal": 6,
        "latitude": 50.948888888,
        "longitude": 10.718333333
      },
      {
        "qid": "Q506743",
        "label": "Waltershausen",
        "ordinal": 7,
        "latitude": 50.8975,
        "longitude": 10.555833333
      },
      {
        "qid": "Q3955",
        "label": "Weimar",
        "ordinal": 8,
        "latitude": 50.981111111,
        "longitude": 11.329444444
      },
      {
        "qid": "Q3955",
        "label": "Weimar",
        "ordinal": 9,
        "latitude": 50.981111111,
        "longitude": 11.329444444
      },
      {
        "qid": "Q3955",
        "label": "Weimar",
        "ordinal": 10,
        "latitude": 50.981111111,
        "longitude": 11.329444444
      },
      {
        "qid": "Q3150",
        "label": "Jena",
        "ordinal": 11,
        "latitude": 50.927222222,
        "longitude": 11.586388888
      },
      {
        "qid": "Q2079",
        "label": "Leipzig",
        "ordinal": 12,
        "latitude": 51.3406321,
        "longitude": 12.3747329
      },
      {
        "qid": "Q487070",
        "label": "Dessau",
        "ordinal": 13,
        "latitude": 51.834166666,
        "longitude": 12.246111111
      },
      {
        "qid": "Q487070",
        "label": "Dessau",
        "ordinal": 14,
        "latitude": 51.834166666,
        "longitude": 12.246111111
      },
      {
        "qid": "Q518275",
        "label": "Wörlitz",
        "ordinal": 15,
        "latitude": 51.841666666,
        "longitude": 12.420277777
      },
      {
        "qid": "Q518275",
        "label": "Wörlitz",
        "ordinal": 16,
        "latitude": 51.841666666,
        "longitude": 12.420277777
      },
      {
        "qid": "Q6837",
        "label": "Lutherstadt Wittenberg",
        "ordinal": 17,
        "latitude": 51.8671,
        "longitude": 12.6484
      },
      {
        "qid": "Q2814",
        "label": "Halle (Saale)",
        "ordinal": 18,
        "latitude": 51.482777777,
        "longitude": 11.969722222
      },
      {
        "qid": "Q14945",
        "label": "Merseburg",
        "ordinal": 19,
        "latitude": 51.354444444,
        "longitude": 11.992777777
      },
      {
        "qid": "Q15986",
        "label": "Naumburg",
        "ordinal": 20,
        "latitude": 51.152095,
        "longitude": 11.809819
      },
      {
        "qid": "Q552165",
        "label": "Auerstedt",
        "ordinal": 21,
        "latitude": 51.099444444,
        "longitude": 11.5875
      },
      {
        "qid": "Q3955",
        "label": "Weimar",
        "ordinal": 22,
        "latitude": 50.981111111,
        "longitude": 11.329444444
      },
      {
        "qid": "Q650950",
        "label": "Oßmannstedt",
        "ordinal": 23,
        "latitude": 51.018611111,
        "longitude": 11.427222222
      },
      {
        "qid": "Q1729",
        "label": "Erfurt",
        "ordinal": 24,
        "latitude": 50.978055555,
        "longitude": 11.028888888
      },
      {
        "qid": "Q7070",
        "label": "Eisenach",
        "ordinal": 25,
        "latitude": 50.974722222,
        "longitude": 10.324444444
      }
    ]
  },
  "Q109943910": {
    "label": "Reiseschatten von einem Ausfluge nach dem Harz, der Sächsischen Schweiz im Sommer 1831",
    "locations": [
      {
        "qid": "Q529928",
        "label": "Ilsenburg",
        "ordinal": 1,
        "latitude": 51.866666666,
        "longitude": 10.683333333
      },
      {
        "qid": "Q529928",
        "label": "Ilsenburg",
        "ordinal": 2,
        "latitude": 51.866666666,
        "longitude": 10.683333333
      },
      {
        "qid": "Q702123",
        "label": "Schierke",
        "ordinal": 3,
        "latitude": 51.763888888,
        "longitude": 10.664722222
      },
      {
        "qid": "Q702123",
        "label": "Schierke",
        "ordinal": 4,
        "latitude": 51.763888888,
        "longitude": 10.664722222
      },
      {
        "qid": "Q679561",
        "label": "Rübeland",
        "ordinal": 5,
        "latitude": 51.755688888,
        "longitude": 10.8466
      },
      {
        "qid": "Q679561",
        "label": "Rübeland",
        "ordinal": 6,
        "latitude": 51.755688888,
        "longitude": 10.8466
      },
      {
        "qid": "Q525960",
        "label": "Blankenburg",
        "ordinal": 7,
        "latitude": 51.795277777,
        "longitude": 10.962222222
      },
      {
        "qid": "Q525960",
        "label": "Blankenburg",
        "ordinal": 8,
        "latitude": 51.795277777,
        "longitude": 10.962222222
      },
      {
        "qid": "Q506460",
        "label": "Thale",
        "ordinal": 9,
        "latitude": 51.751111111,
        "longitude": 11.042777777
      },
      {
        "qid": "Q525960",
        "label": "Blankenburg",
        "ordinal": 10,
        "latitude": 51.795277777,
        "longitude": 10.962222222
      },
      {
        "qid": "Q506460",
        "label": "Thale",
        "ordinal": 11,
        "latitude": 51.751111111,
        "longitude": 11.042777777
      },
      {
        "qid": "Q889810",
        "label": "Bode Gorge",
        "ordinal": 12,
        "latitude": 51.733333333,
        "longitude": 10.966666666
      },
      {
        "qid": "Q889810",
        "label": "Bode Gorge",
        "ordinal": 12,
        "latitude": 51.735555555,
        "longitude": 11.009722222
      },
      {
        "qid": "Q518258",
        "label": "Gernrode",
        "ordinal": 13,
        "latitude": 51.724444444,
        "longitude": 11.139166666
      },
      {
        "qid": "Q328815",
        "label": "Mägdesprung",
        "ordinal": 14,
        "latitude": 51.6694,
        "longitude": 11.1302
      },
      {
        "qid": "Q317023",
        "label": "Falkenstein Castle",
        "ordinal": 15,
        "latitude": 51.681666666,
        "longitude": 11.265
      },
      {
        "qid": "Q555133",
        "label": "Alexisbad",
        "ordinal": 16,
        "latitude": 51.649444444,
        "longitude": 11.116944444
      },
      {
        "qid": "Q526353",
        "label": "Harzgerode",
        "ordinal": 18,
        "latitude": 51.641666666,
        "longitude": 11.142777777
      },
      {
        "qid": "Q1815156",
        "label": "Leimbach",
        "ordinal": 19,
        "latitude": 51.6031,
        "longitude": 11.4642
      },
      {
        "qid": "Q32121162",
        "label": "Mansfeld",
        "ordinal": 20,
        "latitude": 51.592222222,
        "longitude": 11.452222222
      },
      {
        "qid": "Q484870",
        "label": "Eisleben",
        "ordinal": 21,
        "latitude": 51.516666666,
        "longitude": 11.55
      },
      {
        "qid": "Q14945",
        "label": "Merseburg",
        "ordinal": 22,
        "latitude": 51.354444444,
        "longitude": 11.992777777
      },
      {
        "qid": "Q14945",
        "label": "Merseburg",
        "ordinal": 23,
        "latitude": 51.354444444,
        "longitude": 11.992777777
      },
      {
        "qid": "Q2079",
        "label": "Leipzig",
        "ordinal": 24,
        "latitude": 51.3406321,
        "longitude": 12.3747329
      },
      {
        "qid": "Q2079",
        "label": "Leipzig",
        "ordinal": 25,
        "latitude": 51.3406321,
        "longitude": 12.3747329
      },
      {
        "qid": "Q8738",
        "label": "Meissen",
        "ordinal": 26,
        "latitude": 51.163611111,
        "longitude": 13.4775
      },
      {
        "qid": "Q517828",
        "label": "Hubertusburg",
        "ordinal": 27,
        "latitude": 51.2774,
        "longitude": 12.9398
      },
      {
        "qid": "Q8738",
        "label": "Meissen",
        "ordinal": 28,
        "latitude": 51.163611111,
        "longitude": 13.4775
      },
      {
        "qid": "Q1731",
        "label": "Dresden",
        "ordinal": 29,
        "latitude": 51.0493286,
        "longitude": 13.7381437
      },
      {
        "qid": "Q1731",
        "label": "Dresden",
        "ordinal": 30,
        "latitude": 51.0493286,
        "longitude": 13.7381437
      },
      {
        "qid": "Q8946",
        "label": "Pillnitz",
        "ordinal": 31,
        "latitude": 51.012777777,
        "longitude": 13.872777777
      },
      {
        "qid": "Q1823888",
        "label": "Liebethal",
        "ordinal": 32,
        "latitude": 51.0,
        "longitude": 13.9583
      },
      {
        "qid": "Q8202",
        "label": "Lohmen",
        "ordinal": 33,
        "latitude": 50.988027777,
        "longitude": 14.004711111
      },
      {
        "qid": "Q12356313",
        "label": "Uttewalde",
        "ordinal": 34,
        "latitude": 50.97664,
        "longitude": 14.03289
      },
      {
        "qid": "Q8202",
        "label": "Lohmen",
        "ordinal": 35,
        "latitude": 50.988027777,
        "longitude": 14.004711111
      },
      {
        "qid": "Q6780",
        "label": "Hohnstein",
        "ordinal": 36,
        "latitude": 50.983333333,
        "longitude": 14.116666666
      },
      {
        "qid": "Q6780",
        "label": "Hohnstein",
        "ordinal": 37,
        "latitude": 50.983333333,
        "longitude": 14.116666666
      },
      {
        "qid": "Q15096909",
        "label": "Ostrau",
        "ordinal": 38,
        "latitude": 50.919444,
        "longitude": 14.175
      },
      {
        "qid": "Q6406",
        "label": "Bad Schandau",
        "ordinal": 39,
        "latitude": 50.916666666,
        "longitude": 14.15
      },
      {
        "qid": "Q6477",
        "label": "Pirna",
        "ordinal": 40,
        "latitude": 50.962222222,
        "longitude": 13.940277777
      },
      {
        "qid": "Q8714",
        "label": "Großenhain",
        "ordinal": 41,
        "latitude": 51.291944444,
        "longitude": 13.534166666
      }
    ]
  },
  "Q109943911": {
    "label": "Kleine Wanderungen auch größere Reisen der weiblichen Zöglinge zu Schnepfenthal",
    "locations": [
      {
        "qid": "Q695956",
        "label": "Ernstroda",
        "ordinal": 1,
        "latitude": 50.864166666,
        "longitude": 10.619444444
      },
      {
        "qid": "Q1545363",
        "label": "Schönau vor dem Walde",
        "ordinal": 2,
        "latitude": 50.8558,
        "longitude": 10.6392
      },
      {
        "qid": "Q32029496",
        "label": "Georgenthal",
        "ordinal": 3,
        "latitude": 50.831944444,
        "longitude": 10.662777777
      },
      {
        "qid": "Q1545363",
        "label": "Schönau vor dem Walde",
        "ordinal": 4,
        "latitude": 50.8558,
        "longitude": 10.6392
      },
      {
        "qid": "Q520025",
        "label": "Friedrichroda",
        "ordinal": 5,
        "latitude": 50.85754,
        "longitude": 10.56507
      }
    ]
  },
  "Q109943912": {
    "label": "Beschreibung seiner Reise durch Ober- und Nieder-Sachsen und Hessen",
    "locations": [
      {
        "qid": "Q6837",
        "label": "Lutherstadt Wittenberg",
        "ordinal": 1,
        "latitude": 51.8671,
        "longitude": 12.6484
      },
      {
        "qid": "Q32063121",
        "label": "Jessen",
        "ordinal": 2,
        "latitude": 51.793333333,
        "longitude": 12.9575
      },
      {
        "qid": "Q490413",
        "label": "Annaburg",
        "ordinal": 3,
        "latitude": 51.732777777,
        "longitude": 13.045555555
      },
      {
        "qid": "Q8714",
        "label": "Großenhain",
        "ordinal": 4,
        "latitude": 51.291944444,
        "longitude": 13.534166666
      },
      {
        "qid": "Q1731",
        "label": "Dresden",
        "ordinal": 5,
        "latitude": 51.0493286,
        "longitude": 13.7381437
      },
      {
        "qid": "Q1202",
        "label": "Saxony",
        "ordinal": 6,
        "latitude": 51.026944444,
        "longitude": 13.358888888
      },
      {
        "qid": "Q8738",
        "label": "Meissen",
        "ordinal": 7,
        "latitude": 51.163611111,
        "longitude": 13.4775
      },
      {
        "qid": "Q517828",
        "label": "Hubertusburg",
        "ordinal": 8,
        "latitude": 51.2774,
        "longitude": 12.9398
      },
      {
        "qid": "Q10784",
        "label": "Wurzen",
        "ordinal": 9,
        "latitude": 51.366667,
        "longitude": 12.733333
      },
      {
        "qid": "Q2079",
        "label": "Leipzig",
        "ordinal": 10,
        "latitude": 51.3406321,
        "longitude": 12.3747329
      },
      {
        "qid": "Q12052",
        "label": "Delitzsch",
        "ordinal": 11,
        "latitude": 51.526388888,
        "longitude": 12.3425
      },
      {
        "qid": "Q487070",
        "label": "Dessau",
        "ordinal": 12,
        "latitude": 51.834166666,
        "longitude": 12.246111111
      },
      {
        "qid": "Q155981",
        "label": "Zerbst",
        "ordinal": 13,
        "latitude": 51.968055555,
        "longitude": 12.084444444
      },
      {
        "qid": "Q873362",
        "label": "Breitenfeld",
        "ordinal": 14,
        "latitude": 51.4053,
        "longitude": 12.3422
      },
      {
        "qid": "Q873262",
        "label": "Eutritzsch",
        "ordinal": 15,
        "latitude": 51.3686,
        "longitude": 12.385
      },
      {
        "qid": "Q33459069",
        "label": "Lützen",
        "ordinal": 16,
        "latitude": 51.25671,
        "longitude": 12.14164
      },
      {
        "qid": "Q1549432",
        "label": "Großlehna",
        "ordinal": 17,
        "latitude": 51.3,
        "longitude": 12.166666666
      },
      {
        "qid": "Q1549432",
        "label": "Großlehna",
        "ordinal": 17,
        "latitude": 51.30687,
        "longitude": 12.1719
      },
      {
        "qid": "Q14815",
        "label": "Weißenfels",
        "ordinal": 18,
        "latitude": 51.2,
        "longitude": 11.966666666
      },
      {
        "qid": "Q71090",
        "label": "Augustusburg",
        "ordinal": 19,
        "latitude": 50.814444444,
        "longitude": 13.1
      },
      {
        "qid": "Q15986",
        "label": "Naumburg",
        "ordinal": 20,
        "latitude": 51.152095,
        "longitude": 11.809819
      },
      {
        "qid": "Q703680",
        "label": "Camburg",
        "ordinal": 21,
        "latitude": 51.053888888,
        "longitude": 11.7075
      },
      {
        "qid": "Q702810",
        "label": "Dornburg/Saale",
        "ordinal": 22,
        "latitude": 51.006388888,
        "longitude": 11.666111111
      },
      {
        "qid": "Q3150",
        "label": "Jena",
        "ordinal": 23,
        "latitude": 50.927222222,
        "longitude": 11.586388888
      },
      {
        "qid": "Q3955",
        "label": "Weimar",
        "ordinal": 24,
        "latitude": 50.981111111,
        "longitude": 11.329444444
      },
      {
        "qid": "Q1729",
        "label": "Erfurt",
        "ordinal": 25,
        "latitude": 50.978055555,
        "longitude": 11.028888888
      },
      {
        "qid": "Q6986",
        "label": "Gotha",
        "ordinal": 27,
        "latitude": 50.948888888,
        "longitude": 10.718333333
      },
      {
        "qid": "Q31897438",
        "label": "Bad Langensalza",
        "ordinal": 28,
        "latitude": 51.107777777,
        "longitude": 10.646111111
      }
    ]
  },
  "Q109943913": {
    "label": "Reise von Dresden nach Töplitz und die umliegende Gegend",
    "locations": [
      {
        "qid": "Q6474",
        "label": "Dohna",
        "ordinal": 1,
        "latitude": 50.954722222,
        "longitude": 13.8575
      },
      {
        "qid": "Q15096925",
        "label": "Göppersdorf",
        "ordinal": 2,
        "latitude": 50.860277777,
        "longitude": 13.888888888
      }
    ]
  },
  "Q109943914": {
    "label": "Meine Reise durch Deutschland nebst pathognomischen Bemerkungen über meine gemachten Bekanntschaften",
    "locations": [
      {
        "qid": "Q1731",
        "label": "Dresden",
        "ordinal": 1,
        "latitude": 51.0493286,
        "longitude": 13.7381437
      },
      {
        "qid": "Q12062",
        "label": "Torgau",
        "ordinal": 2,
        "latitude": 51.560277777,
        "longitude": 13.005555555
      },
      {
        "qid": "Q2079",
        "label": "Leipzig",
        "ordinal": 3,
        "latitude": 51.3406321,
        "longitude": 12.3747329
      },
      {
        "qid": "Q2814",
        "label": "Halle (Saale)",
        "ordinal": 4,
        "latitude": 51.482777777,
        "longitude": 11.969722222
      },
      {
        "qid": "Q3150",
        "label": "Jena",
        "ordinal": 5,
        "latitude": 50.927222222,
        "longitude": 11.586388888
      },
      {
        "qid": "Q3955",
        "label": "Weimar",
        "ordinal": 6,
        "latitude": 50.981111111,
        "longitude": 11.329444444
      },
      {
        "qid": "Q6986",
        "label": "Gotha",
        "ordinal": 7,
        "latitude": 50.948888888,
        "longitude": 10.718333333
      }
    ]
  },
  "Q109943916": {
    "label": "Eine Fußreise nach Prag im Jahre 1814, aus den Papieren eines alten Dresdners mitgeteilt",
    "locations": [
      {
        "qid": "Q1867643",
        "label": "Lockwitz",
        "ordinal": 1,
        "latitude": 50.9872,
        "longitude": 13.8064
      },
      {
        "qid": "Q6474",
        "label": "Dohna",
        "ordinal": 2,
        "latitude": 50.954722222,
        "longitude": 13.8575
      },
      {
        "qid": "Q15096919",
        "label": "Friedrichswalde",
        "ordinal": 3,
        "latitude": 50.9,
        "longitude": 13.906944444
      },
      {
        "qid": "Q15096919",
        "label": "Friedrichswalde",
        "ordinal": 4,
        "latitude": 50.9,
        "longitude": 13.906944444
      },
      {
        "qid": "Q15096932",
        "label": "Ottendorf",
        "ordinal": 5,
        "latitude": 50.89721,
        "longitude": 13.92296
      },
      {
        "qid": "Q15096923",
        "label": "Gersdorf",
        "ordinal": 6,
        "latitude": 50.877777777,
        "longitude": 13.913888888
      },
      {
        "qid": "Q15096887",
        "label": "Berggießhübel",
        "ordinal": 7,
        "latitude": 50.87442,
        "longitude": 13.94641
      },
      {
        "qid": "Q15096880",
        "label": "Bad Gottleuba",
        "ordinal": 8,
        "latitude": 50.85141,
        "longitude": 13.94455
      },
      {
        "qid": "Q15096901",
        "label": "Oelsen",
        "ordinal": 9,
        "latitude": 50.8075,
        "longitude": 13.927777777
      },
      {
        "qid": "Q205138",
        "label": "Zinnwald-Georgenfeld",
        "ordinal": 10,
        "latitude": 50.736388888,
        "longitude": 13.765
      },
      {
        "qid": "Q436724",
        "label": "Altenberg",
        "ordinal": 11,
        "latitude": 50.764444444,
        "longitude": 13.757777777
      },
      {
        "qid": "Q1394222",
        "label": "Falkenhain",
        "ordinal": 12,
        "latitude": 50.8143,
        "longitude": 13.737
      },
      {
        "qid": "Q6462",
        "label": "Dippoldiswalde",
        "ordinal": 13,
        "latitude": 50.893333333,
        "longitude": 13.666666666
      },
      {
        "qid": "Q383464",
        "label": "Niederhäslich",
        "ordinal": 14,
        "latitude": 50.9857,
        "longitude": 13.6663
      },
      {
        "qid": "Q2009900",
        "label": "Oberhäslich",
        "ordinal": 15,
        "latitude": 50.910286111,
        "longitude": 13.698802777
      },
      {
        "qid": "Q2557894",
        "label": "Welschhufe",
        "ordinal": 16,
        "latitude": 50.980172222,
        "longitude": 13.706327777
      },
      {
        "qid": "Q15058197",
        "label": "Nöthnitz",
        "ordinal": 17,
        "latitude": 51.00416667,
        "longitude": 13.73055556
      },
      {
        "qid": "Q1252764",
        "label": "Räcknitz",
        "ordinal": 18,
        "latitude": 51.025,
        "longitude": 13.7331
      }
    ]
  },
  "Q109943917": {
    "label": "Fränkische Harzreise 1785, Reisetagebuch des nachmaligen Künzelsauer Pfarrers und Dekans K. L. F. Bauer über seine Reise von Franken nach Sachsen",
    "locations": [
      {
        "qid": "Q498596",
        "label": "Duderstadt",
        "ordinal": 1,
        "latitude": 51.5125,
        "longitude": 10.259722222
      },
      {
        "qid": "Q1514536",
        "label": "Gerode",
        "ordinal": 2,
        "latitude": 51.5214,
        "longitude": 10.4197
      },
      {
        "qid": "Q660127",
        "label": "Stöckey",
        "ordinal": 3,
        "latitude": 51.533888888,
        "longitude": 10.502777777
      },
      {
        "qid": "Q518240",
        "label": "Ellrich",
        "ordinal": 4,
        "latitude": 51.585555555,
        "longitude": 10.668055555
      },
      {
        "qid": "Q701134",
        "label": "Tanne",
        "ordinal": 7,
        "latitude": 51.699444444,
        "longitude": 10.722222222
      },
      {
        "qid": "Q699155",
        "label": "Sorge",
        "ordinal": 8,
        "latitude": 51.692777777,
        "longitude": 10.698333333
      },
      {
        "qid": "Q504884",
        "label": "Elbingerode",
        "ordinal": 9,
        "latitude": 51.769444444,
        "longitude": 10.803055555
      },
      {
        "qid": "Q15982",
        "label": "Wernigerode",
        "ordinal": 10,
        "latitude": 51.835,
        "longitude": 10.785277777
      },
      {
        "qid": "Q525960",
        "label": "Blankenburg",
        "ordinal": 12,
        "latitude": 51.795277777,
        "longitude": 10.962222222
      },
      {
        "qid": "Q525960",
        "label": "Blankenburg",
        "ordinal": 13,
        "latitude": 51.795277777,
        "longitude": 10.962222222
      },
      {
        "qid": "Q40623",
        "label": "Quedlinburg",
        "ordinal": 14,
        "latitude": 51.791666666,
        "longitude": 11.147222222
      },
      {
        "qid": "Q702123",
        "label": "Schierke",
        "ordinal": 15,
        "latitude": 51.763888888,
        "longitude": 10.664722222
      },
      {
        "qid": "Q702123",
        "label": "Schierke",
        "ordinal": 16,
        "latitude": 51.763888888,
        "longitude": 10.664722222
      },
      {
        "qid": "Q529928",
        "label": "Ilsenburg",
        "ordinal": 17,
        "latitude": 51.866666666,
        "longitude": 10.683333333
      },
      {
        "qid": "Q529928",
        "label": "Ilsenburg",
        "ordinal": 18,
        "latitude": 51.866666666,
        "longitude": 10.683333333
      },
      {
        "qid": "Q703859",
        "label": "Drübeck",
        "ordinal": 19,
        "latitude": 51.856388888,
        "longitude": 10.712777777
      },
      {
        "qid": "Q110235500",
        "label": "Altenrode (Ilsenburg)",
        "ordinal": 20,
        "latitude": 51.851333333,
        "longitude": 10.734305555
      },
      {
        "qid": "Q15982",
        "label": "Wernigerode",
        "ordinal": 21,
        "latitude": 51.835,
        "longitude": 10.785277777
      },
      {
        "qid": "Q15982",
        "label": "Wernigerode",
        "ordinal": 22,
        "latitude": 51.835,
        "longitude": 10.785277777
      },
      {
        "qid": "Q679561",
        "label": "Rübeland",
        "ordinal": 23,
        "latitude": 51.755688888,
        "longitude": 10.8466
      },
      {
        "qid": "Q679561",
        "label": "Rübeland",
        "ordinal": 24,
        "latitude": 51.755688888,
        "longitude": 10.8466
      },
      {
        "qid": "Q7072",
        "label": "Halberstadt",
        "ordinal": 25,
        "latitude": 51.895833333,
        "longitude": 11.046666666
      },
      {
        "qid": "Q506738",
        "label": "Schleiz",
        "ordinal": 26,
        "latitude": 50.583333333,
        "longitude": 11.816666666
      },
      {
        "qid": "Q506738",
        "label": "Schleiz",
        "ordinal": 27,
        "latitude": 50.583333333,
        "longitude": 11.816666666
      },
      {
        "qid": "Q1599780",
        "label": "Heinrichsruh",
        "ordinal": 28,
        "latitude": 50.555,
        "longitude": 11.8164
      },
      {
        "qid": "Q545059",
        "label": "Kirschkau",
        "ordinal": 29,
        "latitude": 50.6,
        "longitude": 11.9
      },
      {
        "qid": "Q1879805",
        "label": "Lössau",
        "ordinal": 30,
        "latitude": 50.5878,
        "longitude": 11.8853
      },
      {
        "qid": "Q1390461",
        "label": "Oschitz",
        "ordinal": 31,
        "latitude": 50.565,
        "longitude": 11.7881
      },
      {
        "qid": "Q1546811",
        "label": "Burgk Castle",
        "ordinal": 32,
        "latitude": 50.5536,
        "longitude": 11.7156
      },
      {
        "qid": "Q554713",
        "label": "Dittersdorf",
        "ordinal": 33,
        "latitude": 50.642777777,
        "longitude": 11.816388888
      },
      {
        "qid": "Q660166",
        "label": "Tegau",
        "ordinal": 34,
        "latitude": 50.65,
        "longitude": 11.866666666
      }
    ]
  },
  "Q109943918": {
    "label": "Reise von Dresden nach Teplitz in Böhmen",
    "locations": [
      {
        "qid": "Q1731",
        "label": "Dresden",
        "ordinal": 1,
        "latitude": 51.0493286,
        "longitude": 13.7381437
      },
      {
        "qid": "Q8946",
        "label": "Pillnitz",
        "ordinal": 2,
        "latitude": 51.012777777,
        "longitude": 13.872777777
      },
      {
        "qid": "Q31545382",
        "label": "Geyersberg",
        "ordinal": 3,
        "latitude": 50.616666666,
        "longitude": 12.933333333
      }
    ]
  },
  "Q109943919": {
    "label": "Des Herausgebers kleine Reise in die Nieder- und Ober-Lausitz im Sommer 1782",
    "locations": [
      {
        "qid": "Q3214",
        "label": "Cottbus",
        "ordinal": 0,
        "latitude": 51.760805555,
        "longitude": 14.331861111
      },
      {
        "qid": "Q165131",
        "label": "Bad Muskau",
        "ordinal": 1,
        "latitude": 51.549722222,
        "longitude": 14.72
      },
      {
        "qid": "Q165131",
        "label": "Bad Muskau",
        "ordinal": 2,
        "latitude": 51.549722222,
        "longitude": 14.72
      },
      {
        "qid": "Q165131",
        "label": "Bad Muskau",
        "ordinal": 3,
        "latitude": 51.549722222,
        "longitude": 14.72
      },
      {
        "qid": "Q160507",
        "label": "Köbeln",
        "ordinal": 4,
        "latitude": 51.569444444,
        "longitude": 14.711111111
      },
      {
        "qid": "Q1740022",
        "label": "Keula",
        "ordinal": 5,
        "latitude": 51.5167,
        "longitude": 14.7167
      },
      {
        "qid": "Q584815",
        "label": "Lübben (Spreewald)",
        "ordinal": 6,
        "latitude": 51.95,
        "longitude": 13.9
      }
    ]
  },
  "Q109943920": {
    "label": "Curieuse Reise-Beschreibung des Herrn Androphili",
    "locations": [
      {
        "qid": "Q15134877",
        "label": "Wiedersberg",
        "ordinal": 0,
        "latitude": 50.36399076,
        "longitude": 11.9990766
      },
      {
        "qid": "Q708317",
        "label": "Vogtland",
        "ordinal": 1,
        "latitude": 50.413611111,
        "longitude": 12.178333333
      },
      {
        "qid": "Q81041203",
        "label": "Großzöbern",
        "ordinal": 2,
        "latitude": 50.404369,
        "longitude": 12.040041
      },
      {
        "qid": "Q81911725",
        "label": "Kleinzöbern",
        "ordinal": 3,
        "latitude": 50.407201,
        "longitude": 12.045637
      },
      {
        "qid": "Q3952",
        "label": "Plauen",
        "ordinal": 4,
        "latitude": 50.495,
        "longitude": 12.138333333
      },
      {
        "qid": "Q2010321",
        "label": "Oberlosa",
        "ordinal": 5,
        "latitude": 50.4592,
        "longitude": 12.1619
      },
      {
        "qid": "Q62759706",
        "label": "Untermarxgrün",
        "ordinal": 6,
        "latitude": 50.43062,
        "longitude": 12.17659
      },
      {
        "qid": "Q63147435",
        "label": "Voigtsberg",
        "ordinal": 7,
        "latitude": 50.42291,
        "longitude": 12.184148
      },
      {
        "qid": "Q46845",
        "label": "Oelsnitz",
        "ordinal": 8,
        "latitude": 50.416666666,
        "longitude": 12.166666666
      },
      {
        "qid": "Q46903",
        "label": "Schöneck/Vogtland",
        "ordinal": 9,
        "latitude": 50.390519444,
        "longitude": 12.327311111
      },
      {
        "qid": "Q46828",
        "label": "Zwota",
        "ordinal": 10,
        "latitude": 50.35,
        "longitude": 12.416666666
      },
      {
        "qid": "Q699351",
        "label": "Tannenbergsthal",
        "ordinal": 11,
        "latitude": 50.433333333,
        "longitude": 12.466666666
      },
      {
        "qid": "Q46863",
        "label": "Falkenstein",
        "ordinal": 12,
        "latitude": 50.466666666,
        "longitude": 12.366666666
      },
      {
        "qid": "Q46843",
        "label": "Auerbach",
        "ordinal": 13,
        "latitude": 50.509444444,
        "longitude": 12.4
      },
      {
        "qid": "Q59201346",
        "label": "Oberlauterbach",
        "ordinal": 14,
        "latitude": 50.491373,
        "longitude": 12.316734
      },
      {
        "qid": "Q46506",
        "label": "Bergen",
        "ordinal": 15,
        "latitude": 50.476388888,
        "longitude": 12.279166666
      },
      {
        "qid": "Q21039601",
        "label": "Mechelgrün",
        "ordinal": 16,
        "latitude": 50.48384,
        "longitude": 12.24063
      },
      {
        "qid": "Q46773",
        "label": "Neuensalz",
        "ordinal": 17,
        "latitude": 50.518055555,
        "longitude": 12.220555555
      },
      {
        "qid": "Q51507731",
        "label": "Altensalz",
        "ordinal": 18,
        "latitude": 50.518247,
        "longitude": 12.220772
      },
      {
        "qid": "Q1646569",
        "label": "Voigtsgrün",
        "ordinal": 19,
        "latitude": 50.5147,
        "longitude": 12.2039
      },
      {
        "qid": "Q96482198",
        "label": "Reusa",
        "ordinal": 20,
        "latitude": 50.4908,
        "longitude": 12.1605
      },
      {
        "qid": "Q3952",
        "label": "Plauen",
        "ordinal": 21,
        "latitude": 50.495,
        "longitude": 12.138333333
      },
      {
        "qid": "Q4198",
        "label": "Ore Mountains",
        "ordinal": 22,
        "latitude": 50.5,
        "longitude": 13.0
      },
      {
        "qid": "Q3778",
        "label": "Zwickau",
        "ordinal": 23,
        "latitude": 50.718888888,
        "longitude": 12.496111111
      },
      {
        "qid": "Q1788008",
        "label": "Langenhessen",
        "ordinal": 24,
        "latitude": 50.7675,
        "longitude": 12.3711
      },
      {
        "qid": "Q20070",
        "label": "Crimmitschau",
        "ordinal": 25,
        "latitude": 50.818055555,
        "longitude": 12.3875
      },
      {
        "qid": "Q57941",
        "label": "Schneeberg",
        "ordinal": 26,
        "latitude": 50.594166666,
        "longitude": 12.645555555
      },
      {
        "qid": "Q57711",
        "label": "Bad Schlema",
        "ordinal": 27,
        "latitude": 50.60257,
        "longitude": 12.67288
      },
      {
        "qid": "Q57720",
        "label": "Bockau",
        "ordinal": 28,
        "latitude": 50.541666666,
        "longitude": 12.684722222
      },
      {
        "qid": "Q58019",
        "label": "Sosa",
        "ordinal": 29,
        "latitude": 50.499166666,
        "longitude": 12.651944444
      },
      {
        "qid": "Q57953",
        "label": "Schwarzenberg",
        "ordinal": 30,
        "latitude": 50.545277777,
        "longitude": 12.779166666
      },
      {
        "qid": "Q17123",
        "label": "Mülsen",
        "ordinal": 31,
        "latitude": 50.744722222,
        "longitude": 12.574722222
      },
      {
        "qid": "Q20081",
        "label": "Lichtenstein",
        "ordinal": 32,
        "latitude": 50.756388888,
        "longitude": 12.631666666
      },
      {
        "qid": "Q17112",
        "label": "Bernsdorf",
        "ordinal": 33,
        "latitude": 50.766666666,
        "longitude": 12.666666666
      },
      {
        "qid": "Q20073",
        "label": "Hohenstein-Ernstthal",
        "ordinal": 34,
        "latitude": 50.8,
        "longitude": 12.716666666
      },
      {
        "qid": "Q87896831",
        "label": "Hermsdorf",
        "ordinal": 35,
        "latitude": 50.783697,
        "longitude": 12.676633
      },
      {
        "qid": "Q1516155",
        "label": "Pleißa",
        "ordinal": 36,
        "latitude": 50.8375,
        "longitude": 12.7681
      },
      {
        "qid": "Q20076",
        "label": "Limbach-Oberfrohna",
        "ordinal": 37,
        "latitude": 50.866666666,
        "longitude": 12.75
      },
      {
        "qid": "Q1286501",
        "label": "Kändler",
        "ordinal": 38,
        "latitude": 50.8543,
        "longitude": 12.7899
      },
      {
        "qid": "Q70969",
        "label": "Hartmannsdorf",
        "ordinal": 39,
        "latitude": 50.886666666,
        "longitude": 12.799444444
      },
      {
        "qid": "Q110221601",
        "label": "Göppersdorf (Burgstädt)",
        "ordinal": 40,
        "latitude": 50.902222222,
        "longitude": 12.806666666
      },
      {
        "qid": "Q71095",
        "label": "Burgstädt",
        "ordinal": 41,
        "latitude": 50.92007,
        "longitude": 12.80547
      },
      {
        "qid": "Q1942956",
        "label": "Mohsdorf",
        "ordinal": 42,
        "latitude": 50.9325,
        "longitude": 12.825555555
      },
      {
        "qid": "Q66385147",
        "label": "Heiersdorf",
        "ordinal": 43,
        "latitude": 50.9369715,
        "longitude": 12.7910815
      },
      {
        "qid": "Q94371089",
        "label": "Burkersdorf",
        "ordinal": 44,
        "latitude": 50.92769533,
        "longitude": 12.802667419
      },
      {
        "qid": "Q71057",
        "label": "Taura",
        "ordinal": 45,
        "latitude": 50.918333333,
        "longitude": 12.840833333
      },
      {
        "qid": "Q32252928",
        "label": "Reitzenhain",
        "ordinal": 46,
        "latitude": 50.15,
        "longitude": 7.78333
      },
      {
        "qid": "Q20071",
        "label": "Glauchau",
        "ordinal": 47,
        "latitude": 50.823333333,
        "longitude": 12.544444444
      },
      {
        "qid": "Q20083",
        "label": "Meerane",
        "ordinal": 48,
        "latitude": 50.851944444,
        "longitude": 12.463611111
      },
      {
        "qid": "Q71145",
        "label": "Penig",
        "ordinal": 49,
        "latitude": 50.933611111,
        "longitude": 12.705833333
      },
      {
        "qid": "Q2160272",
        "label": "Rochsburg",
        "ordinal": 50,
        "latitude": 50.947222222,
        "longitude": 12.763888888
      },
      {
        "qid": "Q71137",
        "label": "Lunzenau",
        "ordinal": 51,
        "latitude": 50.963055555,
        "longitude": 12.753055555
      },
      {
        "qid": "Q20078",
        "label": "Hartenstein",
        "ordinal": 52,
        "latitude": 50.668333333,
        "longitude": 12.671388888
      },
      {
        "qid": "Q110234695",
        "label": "Stein",
        "ordinal": 53,
        "latitude": 50.955556,
        "longitude": 12.813889
      },
      {
        "qid": "Q20085",
        "label": "Waldenburg",
        "ordinal": 54,
        "latitude": 50.875833333,
        "longitude": 12.599722222
      },
      {
        "qid": "Q17128",
        "label": "Remse",
        "ordinal": 55,
        "latitude": 50.853888888,
        "longitude": 12.575555555
      },
      {
        "qid": "Q71060",
        "label": "Wechselburg",
        "ordinal": 56,
        "latitude": 51.003055555,
        "longitude": 12.776666666
      },
      {
        "qid": "Q20084",
        "label": "Oberlungwitz",
        "ordinal": 57,
        "latitude": 50.783333333,
        "longitude": 12.716666666
      },
      {
        "qid": "Q2569411",
        "label": "Wiesenburg (Wildenfels)",
        "ordinal": 58,
        "latitude": 50.6497,
        "longitude": 12.5594
      },
      {
        "qid": "Q57881",
        "label": "Eibenstock",
        "ordinal": 59,
        "latitude": 50.495555555,
        "longitude": 12.5975
      },
      {
        "qid": "Q57903",
        "label": "Johanngeorgenstadt",
        "ordinal": 60,
        "latitude": 50.433333333,
        "longitude": 12.713888888
      },
      {
        "qid": "Q1232019",
        "label": "Wildenthal",
        "ordinal": 61,
        "latitude": 50.4508,
        "longitude": 12.6361
      },
      {
        "qid": "Q57944",
        "label": "Annaberg-Buchholz",
        "ordinal": 62,
        "latitude": 50.58,
        "longitude": 13.002222222
      },
      {
        "qid": "Q57951",
        "label": "Marienberg",
        "ordinal": 63,
        "latitude": 50.650833333,
        "longitude": 13.164722222
      },
      {
        "qid": "Q57936",
        "label": "Scheibenberg",
        "ordinal": 64,
        "latitude": 50.540833333,
        "longitude": 12.9125
      },
      {
        "qid": "Q2637402",
        "label": "Albernau",
        "ordinal": 65,
        "latitude": 50.5469299,
        "longitude": 12.6539881
      },
      {
        "qid": "Q57926",
        "label": "Oberwiesenthal",
        "ordinal": 66,
        "latitude": 50.419166666,
        "longitude": 12.970833333
      },
      {
        "qid": "Q57997",
        "label": "Wolkenstein",
        "ordinal": 67,
        "latitude": 50.654444444,
        "longitude": 13.074722222
      },
      {
        "qid": "Q1552242",
        "label": "Grünhain",
        "ordinal": 68,
        "latitude": 50.578611111,
        "longitude": 12.808888888
      },
      {
        "qid": "Q20087",
        "label": "Wildenfels",
        "ordinal": 69,
        "latitude": 50.667777777,
        "longitude": 12.608888888
      },
      {
        "qid": "Q2795",
        "label": "Chemnitz",
        "ordinal": 70,
        "latitude": 50.833333333,
        "longitude": 12.916666666
      },
      {
        "qid": "Q58006",
        "label": "Zschopau",
        "ordinal": 71,
        "latitude": 50.7469606,
        "longitude": 13.0695613
      },
      {
        "qid": "Q57955",
        "label": "Stollberg",
        "ordinal": 72,
        "latitude": 50.708333333,
        "longitude": 12.778333333
      },
      {
        "qid": "Q1069495",
        "label": "Ebersdorf",
        "ordinal": 73,
        "latitude": 50.8783,
        "longitude": 12.9756
      },
      {
        "qid": "Q66490758",
        "label": "Lichtenwalde",
        "ordinal": 74,
        "latitude": 50.883255,
        "longitude": 13.008298
      },
      {
        "qid": "Q56859308",
        "label": "Oberlichtenau",
        "ordinal": 75,
        "latitude": 50.9046,
        "longitude": 12.9741
      },
      {
        "qid": "Q57912563",
        "label": "Niederlichtenau",
        "ordinal": 76,
        "latitude": 50.9088,
        "longitude": 13.0031
      },
      {
        "qid": "Q20825716",
        "label": "Auerswalde",
        "ordinal": 77,
        "latitude": 50.90048,
        "longitude": 12.92076
      },
      {
        "qid": "Q71104",
        "label": "Frankenberg",
        "ordinal": 78,
        "latitude": 50.910833333,
        "longitude": 13.037777777
      },
      {
        "qid": "Q2210594",
        "label": "Sachsenburg",
        "ordinal": 79,
        "latitude": 50.943,
        "longitude": 13.041
      },
      {
        "qid": "Q71170",
        "label": "Mittweida",
        "ordinal": 80,
        "latitude": 50.985555555,
        "longitude": 12.981111111
      },
      {
        "qid": "Q55397563",
        "label": "Weinsdorf",
        "ordinal": 81,
        "latitude": 50.997271,
        "longitude": 13.022886
      },
      {
        "qid": "Q71046",
        "label": "Rossau",
        "ordinal": 82,
        "latitude": 50.997222222,
        "longitude": 13.066111111
      },
      {
        "qid": "Q18289115",
        "label": "Ringethal",
        "ordinal": 83,
        "latitude": 51.005477,
        "longitude": 12.999863
      },
      {
        "qid": "Q1669560",
        "label": "Mühlbach",
        "ordinal": 84,
        "latitude": 50.8994,
        "longitude": 13.0889
      },
      {
        "qid": "Q1591057",
        "label": "Hausdorf",
        "ordinal": 85,
        "latitude": 50.8867,
        "longitude": 13.0939
      },
      {
        "qid": "Q71141",
        "label": "Oederan",
        "ordinal": 86,
        "latitude": 50.861666666,
        "longitude": 13.167222222
      },
      {
        "qid": "Q65183816",
        "label": "Eulendorf",
        "ordinal": 87,
        "latitude": 50.933385,
        "longitude": 13.140355
      },
      {
        "qid": "Q65183834",
        "label": "Bockendorf",
        "ordinal": 88,
        "latitude": 50.927132,
        "longitude": 13.162151
      },
      {
        "qid": "Q1127120",
        "label": "Conradsdorf",
        "ordinal": 89,
        "latitude": 50.947222222,
        "longitude": 13.373055555
      },
      {
        "qid": "Q65183687",
        "label": "Berthelsdorf (Hainichen)",
        "ordinal": 90,
        "latitude": 50.949072222,
        "longitude": 13.108244444
      },
      {
        "qid": "Q65182619",
        "label": "Falkenau",
        "ordinal": 91,
        "latitude": 50.963594,
        "longitude": 13.088187
      },
      {
        "qid": "Q71123",
        "label": "Hainichen",
        "ordinal": 92,
        "latitude": 50.969722222,
        "longitude": 13.125277777
      },
      {
        "qid": "Q15058358",
        "label": "Pappendorf",
        "ordinal": 93,
        "latitude": 50.98722222,
        "longitude": 13.18222222
      },
      {
        "qid": "Q1892391",
        "label": "Marbach",
        "ordinal": 94,
        "latitude": 51.0469,
        "longitude": 13.2308
      },
      {
        "qid": "Q1274445",
        "label": "Siebenlehn",
        "ordinal": 95,
        "latitude": 51.031944444,
        "longitude": 13.308333333
      },
      {
        "qid": "Q56001005",
        "label": "Greifendorf",
        "ordinal": 96,
        "latitude": 51.02495,
        "longitude": 13.115756
      },
      {
        "qid": "Q1019808",
        "label": "Böhrigen",
        "ordinal": 97,
        "latitude": 51.0328,
        "longitude": 13.1592
      },
      {
        "qid": "Q71025",
        "label": "Oberschöna",
        "ordinal": 98,
        "latitude": 50.8975,
        "longitude": 13.252777777
      },
      {
        "qid": "Q71148",
        "label": "Roßwein",
        "ordinal": 99,
        "latitude": 51.066666666,
        "longitude": 13.183333333
      },
      {
        "qid": "Q314478",
        "label": "Altzella Abbey",
        "ordinal": 100,
        "latitude": 51.0603,
        "longitude": 13.2765
      },
      {
        "qid": "Q8751",
        "label": "Nossen",
        "ordinal": 101,
        "latitude": 51.05,
        "longitude": 13.3
      },
      {
        "qid": "Q1549752",
        "label": "Großwaltersdorf",
        "ordinal": 103,
        "latitude": 50.7836,
        "longitude": 13.27
      },
      {
        "qid": "Q71117",
        "label": "Großschirma",
        "ordinal": 104,
        "latitude": 50.966388888,
        "longitude": 13.278055555
      },
      {
        "qid": "Q27479035",
        "label": "Kleinschirma",
        "ordinal": 105,
        "latitude": 50.906366,
        "longitude": 13.288898
      },
      {
        "qid": "Q109781775",
        "label": "Erbisdorf",
        "ordinal": 106,
        "latitude": 50.860556,
        "longitude": 13.320833
      },
      {
        "qid": "Q1987630",
        "label": "Niederbobritzsch",
        "ordinal": 107,
        "latitude": 50.898611111,
        "longitude": 13.435
      },
      {
        "qid": "Q1563962",
        "label": "Oberbobritzsch",
        "ordinal": 108,
        "latitude": 50.8625,
        "longitude": 13.463055555
      },
      {
        "qid": "Q71108",
        "label": "Frauenstein",
        "ordinal": 109,
        "latitude": 50.801944444,
        "longitude": 13.538055555
      },
      {
        "qid": "Q14819",
        "label": "Freiberg",
        "ordinal": 110,
        "latitude": 50.911944444,
        "longitude": 13.342777777
      },
      {
        "qid": "Q70964",
        "label": "Halsbrücke",
        "ordinal": 111,
        "latitude": 50.95,
        "longitude": 13.349722222
      },
      {
        "qid": "Q542005",
        "label": "Hilbersdorf",
        "ordinal": 112,
        "latitude": 50.909444444,
        "longitude": 13.398333333
      },
      {
        "qid": "Q1394161",
        "label": "Falkenberg",
        "ordinal": 113,
        "latitude": 50.9511,
        "longitude": 13.3917
      },
      {
        "qid": "Q857090",
        "label": "Bieberstein",
        "ordinal": 114,
        "latitude": 51.0064,
        "longitude": 13.3399
      },
      {
        "qid": "Q71041",
        "label": "Reinsberg",
        "ordinal": 115,
        "latitude": 51.008333333,
        "longitude": 13.363888888
      },
      {
        "qid": "Q15407759",
        "label": "Dittmannsdorf",
        "ordinal": 116,
        "latitude": 51.0,
        "longitude": 13.40833333
      },
      {
        "qid": "Q1640185",
        "label": "Naundorf",
        "ordinal": 117,
        "latitude": 50.935,
        "longitude": 13.4206
      },
      {
        "qid": "Q1546774",
        "label": "Grillenburg",
        "ordinal": 118,
        "latitude": 50.9528,
        "longitude": 13.5072
      },
      {
        "qid": "Q6685",
        "label": "Dorfhain",
        "ordinal": 119,
        "latitude": 50.933333333,
        "longitude": 13.566666666
      },
      {
        "qid": "Q991571",
        "label": "Niederschöna",
        "ordinal": 120,
        "latitude": 50.9625,
        "longitude": 13.422222222
      },
      {
        "qid": "Q27684336",
        "label": "Herrndorf",
        "ordinal": 121,
        "latitude": 50.977578,
        "longitude": 13.468338
      },
      {
        "qid": "Q1616318",
        "label": "Hetzdorf",
        "ordinal": 122,
        "latitude": 50.9706,
        "longitude": 13.445
      },
      {
        "qid": "Q1470872",
        "label": "Grund",
        "ordinal": 123,
        "latitude": 50.995,
        "longitude": 13.4717
      },
      {
        "qid": "Q1942897",
        "label": "Mohorn",
        "ordinal": 124,
        "latitude": 51.001666666,
        "longitude": 13.459722222
      },
      {
        "qid": "Q1615362",
        "label": "Herzogswalde",
        "ordinal": 125,
        "latitude": 51.0125,
        "longitude": 13.494166666
      },
      {
        "qid": "Q1601687",
        "label": "Helbigsdorf",
        "ordinal": 126,
        "latitude": 51.0286,
        "longitude": 13.4725
      },
      {
        "qid": "Q71154",
        "label": "Waldheim",
        "ordinal": 127,
        "latitude": 51.066666666,
        "longitude": 13.016666666
      },
      {
        "qid": "Q98271288",
        "label": "Massanei",
        "ordinal": 128,
        "latitude": 51.064585,
        "longitude": 13.053117
      },
      {
        "qid": "Q1918169",
        "label": "Meinsberg",
        "ordinal": 129,
        "latitude": 51.083055555,
        "longitude": 13.033611111
      },
      {
        "qid": "Q56474043",
        "label": "Ehrenberg",
        "ordinal": 131,
        "latitude": 51.043037,
        "longitude": 13.033537
      },
      {
        "qid": "Q93335013",
        "label": "Neuschönberg",
        "ordinal": 133,
        "latitude": 51.057599,
        "longitude": 13.008965
      },
      {
        "qid": "Q27479254",
        "label": "Grünlichtenberg",
        "ordinal": 134,
        "latitude": 51.040806,
        "longitude": 13.062274
      },
      {
        "qid": "Q56037535",
        "label": "Reichenbach",
        "ordinal": 135,
        "latitude": 51.04711,
        "longitude": 13.0905
      },
      {
        "qid": "Q20804043",
        "label": "Richzenhain",
        "ordinal": 136,
        "latitude": 51.07699,
        "longitude": 12.99045
      },
      {
        "qid": "Q71129",
        "label": "Hartha",
        "ordinal": 137,
        "latitude": 51.097777777,
        "longitude": 12.977222222
      },
      {
        "qid": "Q25248070",
        "label": "Schweikershain",
        "ordinal": 138,
        "latitude": 51.04666667,
        "longitude": 12.95027778
      },
      {
        "qid": "Q71163",
        "label": "Döbeln",
        "ordinal": 139,
        "latitude": 51.119444444,
        "longitude": 13.112777777
      },
      {
        "qid": "Q1183204",
        "label": "Deila",
        "ordinal": 140,
        "latitude": 51.1504,
        "longitude": 13.3548
      },
      {
        "qid": "Q8734",
        "label": "Lommatzsch",
        "ordinal": 141,
        "latitude": 51.2,
        "longitude": 13.3
      },
      {
        "qid": "Q105103124",
        "label": "Ziegenhain",
        "ordinal": 142,
        "latitude": 51.13584,
        "longitude": 13.30833
      },
      {
        "qid": "Q1348391",
        "label": "Graupzig",
        "ordinal": 143,
        "latitude": 51.144722222,
        "longitude": 13.307777777
      },
      {
        "qid": "Q110234702",
        "label": "Leuben",
        "ordinal": 144,
        "latitude": 51.163889,
        "longitude": 13.296389
      },
      {
        "qid": "Q95678541",
        "label": "Schleinitz",
        "ordinal": 145,
        "latitude": 51.16366,
        "longitude": 13.27414
      },
      {
        "qid": "Q97104289",
        "label": "Perba",
        "ordinal": 146,
        "latitude": 51.15776,
        "longitude": 13.28371
      },
      {
        "qid": "Q2559207",
        "label": "Wendischbora",
        "ordinal": 147,
        "latitude": 51.0785,
        "longitude": 13.3421
      },
      {
        "qid": "Q1407901",
        "label": "Raußlitz",
        "ordinal": 148,
        "latitude": 51.1097,
        "longitude": 13.3151
      },
      {
        "qid": "Q1790614",
        "label": "Krögis",
        "ordinal": 149,
        "latitude": 51.119722222,
        "longitude": 13.379166666
      },
      {
        "qid": "Q15128830",
        "label": "Soppen",
        "ordinal": 150,
        "latitude": 51.105489,
        "longitude": 13.369324
      },
      {
        "qid": "Q1935824",
        "label": "Miltitz",
        "ordinal": 151,
        "latitude": 51.1036,
        "longitude": 13.4028
      },
      {
        "qid": "Q1617008",
        "label": "Heynitz",
        "ordinal": 152,
        "latitude": 51.0917,
        "longitude": 13.382
      },
      {
        "qid": "Q999488",
        "label": "Rothschönberg",
        "ordinal": 153,
        "latitude": 51.0658,
        "longitude": 13.3946
      },
      {
        "qid": "Q1016535",
        "label": "Burkhardswalde",
        "ordinal": 154,
        "latitude": 51.0727,
        "longitude": 13.4336
      },
      {
        "qid": "Q1953406",
        "label": "Munzig",
        "ordinal": 155,
        "latitude": 51.0833,
        "longitude": 13.4167
      },
      {
        "qid": "Q1620415",
        "label": "Hirschfeld",
        "ordinal": 156,
        "latitude": 51.0374,
        "longitude": 13.35
      },
      {
        "qid": "Q27492274",
        "label": "Neukirchen (Reinsberg)",
        "ordinal": 157,
        "latitude": 51.03124,
        "longitude": 13.39351
      },
      {
        "qid": "Q1796285",
        "label": "Tanneberg",
        "ordinal": 158,
        "latitude": 51.05,
        "longitude": 13.4131
      },
      {
        "qid": "Q1825350",
        "label": "Limbach",
        "ordinal": 159,
        "latitude": 51.0506,
        "longitude": 13.4753
      },
      {
        "qid": "Q8248",
        "label": "Wilsdruff",
        "ordinal": 160,
        "latitude": 51.052222222,
        "longitude": 13.538333333
      },
      {
        "qid": "Q504903",
        "label": "Grumbach",
        "ordinal": 161,
        "latitude": 51.031388888,
        "longitude": 13.548055555
      },
      {
        "qid": "Q8245",
        "label": "Tharandt",
        "ordinal": 162,
        "latitude": 50.983333333,
        "longitude": 13.580833333
      },
      {
        "qid": "Q1479919",
        "label": "Fördergersdorf",
        "ordinal": 163,
        "latitude": 50.9961,
        "longitude": 13.5397
      },
      {
        "qid": "Q6376",
        "label": "Somsdorf",
        "ordinal": 164,
        "latitude": 50.975713888,
        "longitude": 13.604188888
      },
      {
        "qid": "Q8218",
        "label": "Rabenau",
        "ordinal": 165,
        "latitude": 50.966666666,
        "longitude": 13.633333333
      },
      {
        "qid": "Q383394",
        "label": "Döhlen",
        "ordinal": 166,
        "latitude": 51.0072,
        "longitude": 13.6467
      },
      {
        "qid": "Q1549488",
        "label": "Großopitz",
        "ordinal": 167,
        "latitude": 50.9986,
        "longitude": 13.5922
      },
      {
        "qid": "Q6366",
        "label": "Pesterwitz",
        "ordinal": 168,
        "latitude": 51.0281,
        "longitude": 13.6539
      },
      {
        "qid": "Q1652541",
        "label": "Kohlsdorf",
        "ordinal": 169,
        "latitude": 51.0301,
        "longitude": 13.6342
      },
      {
        "qid": "Q6820",
        "label": "Zauckerode",
        "ordinal": 170,
        "latitude": 51.018055555,
        "longitude": 13.638888888
      },
      {
        "qid": "Q902083",
        "label": "Braunsdorf",
        "ordinal": 171,
        "latitude": 51.0161,
        "longitude": 13.5711
      },
      {
        "qid": "Q2009825",
        "label": "Oberhermsdorf",
        "ordinal": 172,
        "latitude": 51.0183,
        "longitude": 13.5869
      },
      {
        "qid": "Q1987847",
        "label": "Niederhermsdorf",
        "ordinal": 173,
        "latitude": 51.023097222,
        "longitude": 13.616086111
      },
      {
        "qid": "Q1746972",
        "label": "Kleinopitz",
        "ordinal": 174,
        "latitude": 51.006388888,
        "longitude": 13.593888888
      },
      {
        "qid": "Q315948",
        "label": "Kesselsdorf",
        "ordinal": 175,
        "latitude": 51.033333333,
        "longitude": 13.6
      },
      {
        "qid": "Q504903",
        "label": "Grumbach",
        "ordinal": 176,
        "latitude": 51.031388888,
        "longitude": 13.548055555
      },
      {
        "qid": "Q1668480",
        "label": "Steinbach",
        "ordinal": 177,
        "latitude": 51.0458,
        "longitude": 13.6033
      },
      {
        "qid": "Q8967",
        "label": "Pennrich",
        "ordinal": 178,
        "latitude": 51.043055555,
        "longitude": 13.625213888
      },
      {
        "qid": "Q915219",
        "label": "Briesnitz",
        "ordinal": 179,
        "latitude": 51.0667,
        "longitude": 13.6744
      },
      {
        "qid": "Q1674903",
        "label": "Oberwartha",
        "ordinal": 180,
        "latitude": 51.0778,
        "longitude": 13.6028
      },
      {
        "qid": "Q8964",
        "label": "Niederwartha",
        "ordinal": 181,
        "latitude": 51.093333333,
        "longitude": 13.603611111
      },
      {
        "qid": "Q1117549",
        "label": "Cossebaude",
        "ordinal": 182,
        "latitude": 51.085,
        "longitude": 13.6272
      },
      {
        "qid": "Q8944",
        "label": "Omsewitz",
        "ordinal": 183,
        "latitude": 51.054722222,
        "longitude": 13.660555555
      },
      {
        "qid": "Q1634399",
        "label": "Weistropp",
        "ordinal": 184,
        "latitude": 51.0869,
        "longitude": 13.585
      },
      {
        "qid": "Q1167976",
        "label": "Kötzschenbroda",
        "ordinal": 185,
        "latitude": 51.1047,
        "longitude": 13.6314
      },
      {
        "qid": "Q1691815",
        "label": "Naundorf",
        "ordinal": 186,
        "latitude": 51.1111,
        "longitude": 13.6064
      },
      {
        "qid": "Q206739",
        "label": "Zitzschewig",
        "ordinal": 187,
        "latitude": 51.1181,
        "longitude": 13.6042
      },
      {
        "qid": "Q1720959",
        "label": "Kaditz",
        "ordinal": 188,
        "latitude": 51.0833,
        "longitude": 13.6717
      },
      {
        "qid": "Q8888",
        "label": "Altfranken",
        "ordinal": 189,
        "latitude": 51.033333333,
        "longitude": 13.645833333
      },
      {
        "qid": "Q8915",
        "label": "Gorbitz",
        "ordinal": 190,
        "latitude": 51.045555555,
        "longitude": 13.67
      },
      {
        "qid": "Q2596418",
        "label": "Wölfnitz",
        "ordinal": 191,
        "latitude": 51.0411,
        "longitude": 13.6778
      },
      {
        "qid": "Q8949",
        "label": "Plauen",
        "ordinal": 192,
        "latitude": 51.0294,
        "longitude": 13.7072
      },
      {
        "qid": "Q8949",
        "label": "Plauen",
        "ordinal": 193,
        "latitude": 51.0294,
        "longitude": 13.7072
      },
      {
        "qid": "Q1731",
        "label": "Dresden",
        "ordinal": 194,
        "latitude": 51.0493286,
        "longitude": 13.7381437
      },
      {
        "qid": "Q94725580",
        "label": "Leubnitz",
        "ordinal": 195,
        "latitude": 51.013954,
        "longitude": 13.766245
      },
      {
        "qid": "Q15058197",
        "label": "Nöthnitz",
        "ordinal": 196,
        "latitude": 51.00416667,
        "longitude": 13.73055556
      },
      {
        "qid": "Q2105789",
        "label": "Possendorf",
        "ordinal": 197,
        "latitude": 50.9662,
        "longitude": 13.7127
      },
      {
        "qid": "Q1466538",
        "label": "Malter",
        "ordinal": 198,
        "latitude": 50.9167,
        "longitude": 13.6619
      },
      {
        "qid": "Q2266658",
        "label": "Seifersdorf",
        "ordinal": 199,
        "latitude": 50.9344,
        "longitude": 13.6431
      },
      {
        "qid": "Q1734408",
        "label": "Karsdorf",
        "ordinal": 200,
        "latitude": 50.9406,
        "longitude": 13.6967
      },
      {
        "qid": "Q6462",
        "label": "Dippoldiswalde",
        "ordinal": 201,
        "latitude": 50.893333333,
        "longitude": 13.666666666
      },
      {
        "qid": "Q870105",
        "label": "Oberfrauendorf",
        "ordinal": 202,
        "latitude": 50.861944444,
        "longitude": 13.703333333
      },
      {
        "qid": "Q1987786",
        "label": "Niederfrauendorf",
        "ordinal": 203,
        "latitude": 50.879461111,
        "longitude": 13.722611111
      },
      {
        "qid": "Q1702452",
        "label": "Johnsbach",
        "ordinal": 204,
        "latitude": 50.8305,
        "longitude": 13.7438
      },
      {
        "qid": "Q700500",
        "label": "Reinhardtsgrimma",
        "ordinal": 205,
        "latitude": 50.883333333,
        "longitude": 13.75
      },
      {
        "qid": "Q436724",
        "label": "Altenberg",
        "ordinal": 206,
        "latitude": 50.764444444,
        "longitude": 13.757777777
      },
      {
        "qid": "Q205138",
        "label": "Zinnwald-Georgenfeld",
        "ordinal": 207,
        "latitude": 50.736388888,
        "longitude": 13.765
      },
      {
        "qid": "Q572891",
        "label": "Geising",
        "ordinal": 208,
        "latitude": 50.758055555,
        "longitude": 13.791111111
      },
      {
        "qid": "Q1867643",
        "label": "Lockwitz",
        "ordinal": 209,
        "latitude": 50.9872,
        "longitude": 13.8064
      },
      {
        "qid": "Q6474",
        "label": "Dohna",
        "ordinal": 210,
        "latitude": 50.954722222,
        "longitude": 13.8575
      },
      {
        "qid": "Q184505",
        "label": "Zehista",
        "ordinal": 211,
        "latitude": 50.940277777,
        "longitude": 13.926388888
      },
      {
        "qid": "Q1016536",
        "label": "Burkhardswalde",
        "ordinal": 212,
        "latitude": 50.9211,
        "longitude": 13.8578
      },
      {
        "qid": "Q15096919",
        "label": "Friedrichswalde",
        "ordinal": 213,
        "latitude": 50.9,
        "longitude": 13.906944444
      },
      {
        "qid": "Q1114677",
        "label": "Weesenstein",
        "ordinal": 214,
        "latitude": 50.9331,
        "longitude": 13.8614
      },
      {
        "qid": "Q1121566",
        "label": "Dittersdorf",
        "ordinal": 215,
        "latitude": 50.8275,
        "longitude": 13.8058
      },
      {
        "qid": "Q1069495",
        "label": "Ebersdorf",
        "ordinal": 216,
        "latitude": 50.8783,
        "longitude": 12.9756
      },
      {
        "qid": "Q15096888",
        "label": "Breitenau",
        "ordinal": 217,
        "latitude": 50.80734,
        "longitude": 13.88912
      },
      {
        "qid": "Q1807348",
        "label": "Lauenstein",
        "ordinal": 218,
        "latitude": 50.7825,
        "longitude": 13.8256
      },
      {
        "qid": "Q1483535",
        "label": "Fürstenwalde",
        "ordinal": 219,
        "latitude": 50.7608,
        "longitude": 13.8675
      },
      {
        "qid": "Q1979432",
        "label": "Neudörfel",
        "ordinal": 220,
        "latitude": 50.86,
        "longitude": 13.8139
      },
      {
        "qid": "Q8199",
        "label": "Liebstadt",
        "ordinal": 221,
        "latitude": 50.864722222,
        "longitude": 13.855555555
      },
      {
        "qid": "Q6483",
        "label": "Sebnitz",
        "ordinal": 222,
        "latitude": 50.966666666,
        "longitude": 14.283333333
      },
      {
        "qid": "Q6477",
        "label": "Pirna",
        "ordinal": 223,
        "latitude": 50.962222222,
        "longitude": 13.940277777
      },
      {
        "qid": "Q15096932",
        "label": "Ottendorf",
        "ordinal": 224,
        "latitude": 50.89721,
        "longitude": 13.92296
      },
      {
        "qid": "Q15096880",
        "label": "Bad Gottleuba",
        "ordinal": 225,
        "latitude": 50.85141,
        "longitude": 13.94455
      },
      {
        "qid": "Q15096887",
        "label": "Berggießhübel",
        "ordinal": 226,
        "latitude": 50.87442,
        "longitude": 13.94641
      },
      {
        "qid": "Q71036",
        "label": "Rechenberg-Bienenmühle",
        "ordinal": 227,
        "latitude": 50.737222222,
        "longitude": 13.544444444
      },
      {
        "qid": "Q1625522",
        "label": "Holzhau",
        "ordinal": 228,
        "latitude": 50.733611111,
        "longitude": 13.588611111
      },
      {
        "qid": "Q1278704",
        "label": "Ebenheit",
        "ordinal": 229,
        "latitude": 50.9255,
        "longitude": 14.0751
      },
      {
        "qid": "Q8244",
        "label": "Struppen",
        "ordinal": 230,
        "latitude": 50.933333333,
        "longitude": 14.016666666
      },
      {
        "qid": "Q6406",
        "label": "Bad Schandau",
        "ordinal": 231,
        "latitude": 50.916666666,
        "longitude": 14.15
      },
      {
        "qid": "Q6783",
        "label": "Königstein",
        "ordinal": 232,
        "latitude": 50.918888888,
        "longitude": 14.071388888
      },
      {
        "qid": "Q8946",
        "label": "Pillnitz",
        "ordinal": 233,
        "latitude": 51.012777777,
        "longitude": 13.872777777
      },
      {
        "qid": "Q1731",
        "label": "Dresden",
        "ordinal": 234,
        "latitude": 51.0493286,
        "longitude": 13.7381437
      },
      {
        "qid": "Q1630590",
        "label": "Hosterwitz",
        "ordinal": 235,
        "latitude": 51.015,
        "longitude": 13.8578
      },
      {
        "qid": "Q81729",
        "label": "Radeberg",
        "ordinal": 236,
        "latitude": 51.116666666,
        "longitude": 13.916666666
      },
      {
        "qid": "Q1871261",
        "label": "Lotzdorf",
        "ordinal": 237,
        "latitude": 51.1271,
        "longitude": 13.9083
      },
      {
        "qid": "Q2258794",
        "label": "Schönborn",
        "ordinal": 238,
        "latitude": 51.1472,
        "longitude": 13.8658
      },
      {
        "qid": "Q1416584",
        "label": "Leppersdorf",
        "ordinal": 239,
        "latitude": 51.150277777,
        "longitude": 13.958611111
      },
      {
        "qid": "Q160601",
        "label": "Kleinröhrsdorf",
        "ordinal": 240,
        "latitude": 51.130555555,
        "longitude": 13.976944444
      },
      {
        "qid": "Q8931",
        "label": "Klotzsche",
        "ordinal": 241,
        "latitude": 51.116388888,
        "longitude": 13.778333333
      },
      {
        "qid": "Q2582505",
        "label": "Wilschdorf",
        "ordinal": 242,
        "latitude": 51.1228,
        "longitude": 13.7228
      },
      {
        "qid": "Q2531403",
        "label": "Volkersdorf",
        "ordinal": 243,
        "latitude": 51.1483,
        "longitude": 13.7386
      },
      {
        "qid": "Q1019230",
        "label": "Bärnsdorf",
        "ordinal": 244,
        "latitude": 51.163333333,
        "longitude": 13.730277777
      },
      {
        "qid": "Q818794",
        "label": "Berbisdorf",
        "ordinal": 245,
        "latitude": 51.1886,
        "longitude": 13.7242
      },
      {
        "qid": "Q1019253",
        "label": "Bärwalde",
        "ordinal": 246,
        "latitude": 51.2014,
        "longitude": 13.6742
      },
      {
        "qid": "Q8770",
        "label": "Radeburg",
        "ordinal": 247,
        "latitude": 51.2125,
        "longitude": 13.725555555
      },
      {
        "qid": "Q889446",
        "label": "Boden",
        "ordinal": 248,
        "latitude": 51.2042,
        "longitude": 13.77
      },
      {
        "qid": "Q1548104",
        "label": "Großdittmannsdorf",
        "ordinal": 249,
        "latitude": 51.1975,
        "longitude": 13.771666666
      },
      {
        "qid": "Q980242",
        "label": "Medingen",
        "ordinal": 250,
        "latitude": 51.1833,
        "longitude": 13.7897
      },
      {
        "qid": "Q97328392",
        "label": "Würschnitz",
        "ordinal": 251,
        "latitude": 51.23547,
        "longitude": 13.79539
      },
      {
        "qid": "Q895567",
        "label": "Boxdorf",
        "ordinal": 253,
        "latitude": 51.1194,
        "longitude": 13.7006
      },
      {
        "qid": "Q2179345",
        "label": "Rödern",
        "ordinal": 254,
        "latitude": 51.2383,
        "longitude": 13.7017
      },
      {
        "qid": "Q8702",
        "label": "Ebersbach",
        "ordinal": 255,
        "latitude": 51.240555555,
        "longitude": 13.66
      },
      {
        "qid": "Q8829",
        "label": "Tauscha",
        "ordinal": 256,
        "latitude": 51.266666666,
        "longitude": 13.8
      },
      {
        "qid": "Q2210771",
        "label": "Sacka",
        "ordinal": 257,
        "latitude": 51.283611111,
        "longitude": 13.793161111
      },
      {
        "qid": "Q21038654",
        "label": "Dobra",
        "ordinal": 258,
        "latitude": 51.25805,
        "longitude": 13.77239
      },
      {
        "qid": "Q1720056",
        "label": "Reichenberg (Moritzburg)",
        "ordinal": 259,
        "latitude": 51.1278,
        "longitude": 13.6806
      },
      {
        "qid": "Q110234697",
        "label": "Bieberach",
        "ordinal": 260,
        "latitude": 51.273333,
        "longitude": 13.652222
      },
      {
        "qid": "Q97289448",
        "label": "Reinersdorf",
        "ordinal": 261,
        "latitude": 51.25429,
        "longitude": 13.61768
      },
      {
        "qid": "Q1722383",
        "label": "Kalkreuth",
        "ordinal": 262,
        "latitude": 51.278305555,
        "longitude": 13.626111111
      },
      {
        "qid": "Q95606774",
        "label": "Göhra",
        "ordinal": 263,
        "latitude": 51.26812,
        "longitude": 13.58978
      },
      {
        "qid": "Q2167838",
        "label": "Rostig",
        "ordinal": 264,
        "latitude": 51.283,
        "longitude": 13.587777777
      },
      {
        "qid": "Q110234699",
        "label": "Naundorf",
        "ordinal": 265,
        "latitude": 51.294444,
        "longitude": 13.543056
      },
      {
        "qid": "Q8714",
        "label": "Großenhain",
        "ordinal": 266,
        "latitude": 51.291944444,
        "longitude": 13.534166666
      },
      {
        "qid": "Q701114",
        "label": "Wildenhain",
        "ordinal": 267,
        "latitude": 51.3,
        "longitude": 13.483333333
      },
      {
        "qid": "Q8792",
        "label": "Strehla",
        "ordinal": 268,
        "latitude": 51.353055555,
        "longitude": 13.225833333
      },
      {
        "qid": "Q8838",
        "label": "Zeithain",
        "ordinal": 269,
        "latitude": 51.333333333,
        "longitude": 13.35
      },
      {
        "qid": "Q110234746",
        "label": "Borack",
        "ordinal": 270,
        "latitude": 51.487663,
        "longitude": 13.0274
      },
      {
        "qid": "Q30778634",
        "label": "Eisen-Berg",
        "ordinal": 271,
        "latitude": 51.25,
        "longitude": 10.416666666
      },
      {
        "qid": "Q8742",
        "label": "Moritzburg",
        "ordinal": 272,
        "latitude": 51.165,
        "longitude": 13.679444444
      },
      {
        "qid": "Q1788507",
        "label": "Kreyern",
        "ordinal": 273,
        "latitude": 51.1565,
        "longitude": 13.6219
      },
      {
        "qid": "Q1548104",
        "label": "Großdittmannsdorf",
        "ordinal": 274,
        "latitude": 51.1975,
        "longitude": 13.771666666
      },
      {
        "qid": "Q1551609",
        "label": "Gröbern",
        "ordinal": 275,
        "latitude": 51.1869,
        "longitude": 13.5214
      },
      {
        "qid": "Q1805303",
        "label": "Trachau",
        "ordinal": 276,
        "latitude": 51.085,
        "longitude": 13.7103
      },
      {
        "qid": "Q8955",
        "label": "Übigau",
        "ordinal": 277,
        "latitude": 51.071388888,
        "longitude": 13.699166666
      },
      {
        "qid": "Q1623165",
        "label": "Hoflößnitz",
        "ordinal": 278,
        "latitude": 51.111666666,
        "longitude": 13.661944444
      },
      {
        "qid": "Q8831",
        "label": "Weinböhla",
        "ordinal": 279,
        "latitude": 51.166666666,
        "longitude": 13.566666666
      },
      {
        "qid": "Q2009098",
        "label": "Oberau",
        "ordinal": 280,
        "latitude": 51.1861,
        "longitude": 13.5564
      },
      {
        "qid": "Q8746",
        "label": "Niederau",
        "ordinal": 281,
        "latitude": 51.175555555,
        "longitude": 13.5425
      },
      {
        "qid": "Q1306131",
        "label": "Steinbach",
        "ordinal": 282,
        "latitude": 51.2028,
        "longitude": 13.625
      },
      {
        "qid": "Q1627782",
        "label": "Naundörfel",
        "ordinal": 283,
        "latitude": 51.2008,
        "longitude": 13.4763
      },
      {
        "qid": "Q140005",
        "label": "Zadel",
        "ordinal": 284,
        "latitude": 51.198333333,
        "longitude": 13.427222222
      },
      {
        "qid": "Q1428854",
        "label": "Scharfenberg (Klipphausen)",
        "ordinal": 285,
        "latitude": 51.1194,
        "longitude": 13.5125
      },
      {
        "qid": "Q227230",
        "label": "Zscheila",
        "ordinal": 286,
        "latitude": 51.1722,
        "longitude": 13.4889
      },
      {
        "qid": "Q1151044",
        "label": "Cölln",
        "ordinal": 287,
        "latitude": 51.1594,
        "longitude": 13.4844
      },
      {
        "qid": "Q2009934",
        "label": "Oberjahna",
        "ordinal": 288,
        "latitude": 51.1593,
        "longitude": 13.4207
      },
      {
        "qid": "Q4373411",
        "label": "Niederjahna",
        "ordinal": 289,
        "latitude": 51.1644,
        "longitude": 13.4344
      },
      {
        "qid": "Q110234702",
        "label": "Leuben",
        "ordinal": 290,
        "latitude": 51.163889,
        "longitude": 13.296389
      },
      {
        "qid": "Q97152429",
        "label": "Pinnewitz",
        "ordinal": 291,
        "latitude": 51.12251,
        "longitude": 13.30968
      },
      {
        "qid": "Q1527924",
        "label": "Lorenzkirch",
        "ordinal": 292,
        "latitude": 51.3549,
        "longitude": 13.2427
      },
      {
        "qid": "Q8775",
        "label": "Riesa",
        "ordinal": 293,
        "latitude": 51.308055555,
        "longitude": 13.293888888
      },
      {
        "qid": "Q12047",
        "label": "Mügeln",
        "ordinal": 294,
        "latitude": 51.233333333,
        "longitude": 13.05
      },
      {
        "qid": "Q12056",
        "label": "Oschatz",
        "ordinal": 295,
        "latitude": 51.300277777,
        "longitude": 13.107222222
      },
      {
        "qid": "Q1109887",
        "label": "Collm",
        "ordinal": 296,
        "latitude": 51.301388888,
        "longitude": 13.020833333
      },
      {
        "qid": "Q517828",
        "label": "Hubertusburg",
        "ordinal": 297,
        "latitude": 51.2774,
        "longitude": 12.9398
      },
      {
        "qid": "Q16067",
        "label": "Wermsdorf",
        "ordinal": 298,
        "latitude": 51.283333333,
        "longitude": 12.95
      },
      {
        "qid": "Q8738",
        "label": "Meissen",
        "ordinal": 299,
        "latitude": 51.163611111,
        "longitude": 13.4775
      },
      {
        "qid": "Q1731",
        "label": "Dresden",
        "ordinal": 300,
        "latitude": 51.0493286,
        "longitude": 13.7381437
      },
      {
        "qid": "Q8939",
        "label": "Loschwitz",
        "ordinal": 301,
        "latitude": 51.063611111,
        "longitude": 13.821666666
      },
      {
        "qid": "Q6780",
        "label": "Hohnstein",
        "ordinal": 302,
        "latitude": 50.983333333,
        "longitude": 14.116666666
      },
      {
        "qid": "Q8240",
        "label": "Stadt Wehlen",
        "ordinal": 303,
        "latitude": 50.956944444,
        "longitude": 14.032222222
      },
      {
        "qid": "Q1593631",
        "label": "Heeselicht",
        "ordinal": 304,
        "latitude": 51.007777777,
        "longitude": 14.090277777
      },
      {
        "qid": "Q12354399",
        "label": "Rathewalde",
        "ordinal": 305,
        "latitude": 50.9824881,
        "longitude": 14.0748358
      },
      {
        "qid": "Q1669089",
        "label": "Langenwolmsdorf",
        "ordinal": 306,
        "latitude": 51.041897222,
        "longitude": 14.116472222
      },
      {
        "qid": "Q8210",
        "label": "Neustadt in Sachsen",
        "ordinal": 307,
        "latitude": 51.0249519,
        "longitude": 14.2140882
      },
      {
        "qid": "Q15097049",
        "label": "Krumhermsdorf",
        "ordinal": 308,
        "latitude": 50.986111,
        "longitude": 14.197222
      },
      {
        "qid": "Q1804890",
        "label": "Langburkersdorf",
        "ordinal": 309,
        "latitude": 51.024713888,
        "longitude": 14.230102777
      },
      {
        "qid": "Q31911413",
        "label": "Berthelsdorf",
        "ordinal": 310,
        "latitude": 51.04679,
        "longitude": 14.22197
      },
      {
        "qid": "Q1335145",
        "label": "Rückersdorf",
        "ordinal": 311,
        "latitude": 51.0526,
        "longitude": 14.1721
      },
      {
        "qid": "Q15097053",
        "label": "Oberottendorf",
        "ordinal": 312,
        "latitude": 51.070833,
        "longitude": 14.205
      },
      {
        "qid": "Q93303",
        "label": "Steinigtwolmsdorf",
        "ordinal": 313,
        "latitude": 51.066666666,
        "longitude": 14.35
      },
      {
        "qid": "Q8956",
        "label": "Weisser Hirsch",
        "ordinal": 314,
        "latitude": 51.063888888,
        "longitude": 13.821388888
      },
      {
        "qid": "Q13427151",
        "label": "Bühlau",
        "ordinal": 315,
        "latitude": 51.0611,
        "longitude": 13.8486
      },
      {
        "qid": "Q1760584",
        "label": "Weißig",
        "ordinal": 316,
        "latitude": 51.0608,
        "longitude": 13.8844
      },
      {
        "qid": "Q8960",
        "label": "Eschdorf",
        "ordinal": 317,
        "latitude": 51.0369,
        "longitude": 13.9406
      },
      {
        "qid": "Q1230360",
        "label": "Dittersbach",
        "ordinal": 318,
        "latitude": 51.0397,
        "longitude": 13.9833
      },
      {
        "qid": "Q8243",
        "label": "Stolpen",
        "ordinal": 319,
        "latitude": 51.048888888,
        "longitude": 14.082777777
      },
      {
        "qid": "Q25873524",
        "label": "Schmiedefeld (Großharthau)",
        "ordinal": 320,
        "latitude": 51.085564,
        "longitude": 14.073579
      },
      {
        "qid": "Q1668312",
        "label": "Kleinwolmsdorf",
        "ordinal": 321,
        "latitude": 51.0981,
        "longitude": 13.9523
      },
      {
        "qid": "Q93234",
        "label": "Großharthau",
        "ordinal": 322,
        "latitude": 51.10383,
        "longitude": 14.09536
      },
      {
        "qid": "Q1534685",
        "label": "Goldbach",
        "ordinal": 323,
        "latitude": 51.11892,
        "longitude": 14.14235
      },
      {
        "qid": "Q93211",
        "label": "Bretnig-Hauswalde",
        "ordinal": 324,
        "latitude": 51.15,
        "longitude": 14.083333333
      },
      {
        "qid": "Q81717",
        "label": "Bischofswerda",
        "ordinal": 325,
        "latitude": 51.1275,
        "longitude": 14.179722222
      },
      {
        "qid": "Q93232",
        "label": "Göda",
        "ordinal": 326,
        "latitude": 51.17772,
        "longitude": 14.31756
      },
      {
        "qid": "Q32530",
        "label": "Lusatia",
        "ordinal": 327,
        "latitude": 51.5450653,
        "longitude": 14.72614
      },
      {
        "qid": "Q14835",
        "label": "Bautzen",
        "ordinal": 328,
        "latitude": 51.181388888,
        "longitude": 14.423888888
      },
      {
        "qid": "Q4077",
        "label": "Görlitz",
        "ordinal": 329,
        "latitude": 51.152777777,
        "longitude": 14.987222222
      },
      {
        "qid": "Q157200",
        "label": "Zittau",
        "ordinal": 330,
        "latitude": 50.896111111,
        "longitude": 14.807222222
      },
      {
        "qid": "Q502504",
        "label": "Oybin",
        "ordinal": 331,
        "latitude": 50.842222222,
        "longitude": 14.742777777
      },
      {
        "qid": "Q81722",
        "label": "Kamenz",
        "ordinal": 332,
        "latitude": 51.27,
        "longitude": 14.095278
      },
      {
        "qid": "Q156768",
        "label": "Löbau",
        "ordinal": 333,
        "latitude": 51.094444444,
        "longitude": 14.666666666
      },
      {
        "qid": "Q14904",
        "label": "Hoyerswerda",
        "ordinal": 334,
        "latitude": 51.433055555,
        "longitude": 14.25
      },
      {
        "qid": "Q81739",
        "label": "Königsbrück",
        "ordinal": 335,
        "latitude": 51.26451,
        "longitude": 13.9054
      },
      {
        "qid": "Q165131",
        "label": "Bad Muskau",
        "ordinal": 336,
        "latitude": 51.549722222,
        "longitude": 14.72
      },
      {
        "qid": "Q160713",
        "label": "Convent of St. Mariestern",
        "ordinal": 337,
        "latitude": 51.2327,
        "longitude": 14.2013
      },
      {
        "qid": "Q81760",
        "label": "Wittichenau",
        "ordinal": 338,
        "latitude": 51.38496,
        "longitude": 14.24403
      },
      {
        "qid": "Q165134",
        "label": "Bernstadt auf dem Eigen",
        "ordinal": 339,
        "latitude": 51.045833333,
        "longitude": 14.826388888
      },
      {
        "qid": "Q513610",
        "label": "St. Marienthal Abbey",
        "ordinal": 340,
        "latitude": 50.997971,
        "longitude": 14.924648
      },
      {
        "qid": "Q165167",
        "label": "Ostritz",
        "ordinal": 341,
        "latitude": 51.014722222,
        "longitude": 14.932222222
      },
      {
        "qid": "Q81753",
        "label": "Weißenberg",
        "ordinal": 342,
        "latitude": 51.2,
        "longitude": 14.666666666
      },
      {
        "qid": "Q157462",
        "label": "Reichenbach",
        "ordinal": 343,
        "latitude": 51.141388888,
        "longitude": 14.8
      },
      {
        "qid": "Q572601",
        "label": "Ruhland",
        "ordinal": 344,
        "latitude": 51.45661,
        "longitude": 13.86426
      },
      {
        "qid": "Q81743",
        "label": "Pulsnitz",
        "ordinal": 345,
        "latitude": 51.181666666,
        "longitude": 14.013055555
      },
      {
        "qid": "Q81735",
        "label": "Elstra",
        "ordinal": 346,
        "latitude": 51.220555555,
        "longitude": 14.130555555
      },